~Version Information Block
 VERS.                2.00:     CWLS LOG ASCII STANDARD - VERSION 2.000000
 WRAP.                  NO:     One Line Per Depth Step
#
~Well Information Block
#MNEM.UNIT                     Data                         Information
#----------   ------------------------------------------   ----------------
 STRT.FT                                     5300.0000:
 STOP.FT                                    10450.0000:
 STEP.FT                                        0.5000:
 NULL.                                       -999.2500:
 COMP.                                                :     COMPANY
 WELL.                                                :     WELL
 FLD .                                                :     FIELD
 CNTY.                                                :     COUNTY
 STAT.                                                :     STATE
 CTRY.                                                :     COUNTRY
 SRVC.                                                :     SERVICE COMPANY
 DATE.                                                :     DATE
 API .                                                :     API NUMBER
 UWI .                                                :     UWI NUMBER
#
~Curve Information Block
#MNEM.UNIT       API CODE      Curve Description
#----------    -------------   -------------------
 DEPT.FT                   :   Depth in Feet
 GR  .GAPI                 :   Gamma Ray
 RHOB.G/C3                 :   Bulk Density
#
~A  DEPTH         GR       RHOB  
# ...
  9076.000     11.584      2.816 
  9076.500     11.445      2.819 
  9077.000     12.091      2.823 
  9077.500     12.277      2.822 
  9078.000     12.855      2.820 
  9078.500     14.976      2.821 
  9079.000     18.374      2.827 
  9079.500     20.351      2.823 
  9080.000     20.914      2.802 
  9080.500     20.254      2.796 
  9081.000     17.987      2.818 
  9081.500     16.040      2.824 
  9082.000     14.458      2.824 
  9082.500     13.174      2.818 
  9083.000     13.621      2.814 
  9083.500     14.851      2.816 
  9084.000     16.140      2.822 
  9084.500     16.546      2.823 
  9085.000     15.184      2.817 
  9085.500     12.434      2.815 
  9086.000     10.690      2.825 
  9086.500      9.808      2.835 
  9087.000      9.966      2.862 
  9087.500      9.873      2.851 
  9088.000     10.407      2.823 
  9088.500      9.469      2.807 
  9089.000      8.279      2.812 
  9089.500      7.823      2.822 
  9090.000      7.207      2.822 
  9090.500      9.518      2.820 
  9091.000     10.749      2.804 
  9091.500     15.254      2.811 
  9092.000     18.908      2.820 
  9092.500     23.345      2.818 
  9093.000     24.372      2.816 
  9093.500     23.314      2.817 
  9094.000     20.613      2.817 
  9094.500     18.011      2.822 
  9095.000     16.138      2.826 
  9095.500     16.287      2.825 
  9096.000     16.143      2.824 
  9096.500     13.050      2.818 
  9097.000     12.128      2.820 
  9097.500     11.428      2.837 
  9098.000     11.602      2.850 
  9098.500     13.022      2.847 
  9099.000     13.054      2.842 
  9099.500     13.116      2.835 
  9100.000     13.062      2.836 
  9100.500     13.181      2.833 
  9101.000     12.392      2.832 
  9101.500     12.779      2.837 
  9102.000     13.043      2.846 
  9102.500     13.657      2.855 
  9103.000     14.534      2.853 
  9103.500     14.646      2.847 
  9104.000     14.639      2.840 
  9104.500     14.898      2.830 
  9105.000     15.401      2.816 
  9105.500     18.230      2.813 
  9106.000     20.074      2.815 
  9106.500     26.972      2.792 
  9107.000     34.079      2.770 
  9107.500     41.149      2.730 
  9108.000     50.571      2.731 
  9108.500     54.588      2.751 
  9109.000     46.310      2.771 
  9109.500     38.547      2.792 
  9110.000     32.772      2.801 
  9110.500     26.770      2.813 
  9111.000     23.000      2.821 
  9111.500     20.768      2.820 
  9112.000     19.607      2.819 
  9112.500     19.430      2.827 
  9113.000     20.801      2.830 
  9113.500     21.596      2.842 
  9114.000     21.865      2.844 
  9114.500     21.242      2.844 
  9115.000     20.965      2.841 
  9115.500     22.168      2.834 
  9116.000     25.415      2.829 
  9116.500     31.463      2.820 
  9117.000     36.850      2.809 
  9117.500     42.385      2.796 
  9118.000     49.913      2.785 
  9118.500     55.617      2.767 
  9119.000     52.277      2.747 
  9119.500     47.729      2.744 
  9120.000     37.473      2.744 
  9120.500     23.837      2.777 
  9121.000     19.293      2.787 
  9121.500     15.762      2.816 
  9122.000     14.140      2.834 
  9122.500     15.599      2.840 
  9123.000     17.235      2.845 
  9123.500     19.774      2.848 
  9124.000     19.379      2.848 
  9124.500     21.942      2.839 
  9125.000     23.508      2.827 
  9125.500     31.355      2.810 
  9126.000     41.515      2.793 
  9126.500     59.569      2.780 
  9127.000     63.645      2.764 
  9127.500     65.966      2.752 
  9128.000     57.660      2.748 
  9128.500     46.292      2.745 
  9129.000     36.900      2.766 
  9129.500     32.530      2.795 
  9130.000     29.863      2.849 
  9130.500     25.173      2.846 
  9131.000     24.241      2.843 
  9131.500     23.866      2.826 
  9132.000     23.201      2.818 
  9132.500     21.642      2.797 
  9133.000     22.059      2.794 
  9133.500     23.326      2.791 
  9134.000     23.951      2.812 
  9134.500     24.360      2.831 
  9135.000     22.928      2.823 
  9135.500     21.589      2.816 
  9136.000     20.847      2.815 
  9136.500     22.565      2.797 
  9137.000     28.239      2.771 
  9137.500     33.836      2.764 
  9138.000     38.446      2.770 
  9138.500     32.956      2.811 
  9139.000     26.528      2.832 
  9139.500     20.253      2.836 
  9140.000     18.433      2.826 
  9140.500     17.683      2.810 
  9141.000     13.163      2.806 
  9141.500     13.265      2.812 
  9142.000     14.080      2.819 
  9142.500     14.429      2.821 
  9143.000     15.331      2.823 
  9143.500     15.491      2.821 
  9144.000     15.475      2.815 
  9144.500     15.473      2.803 
  9145.000     15.480      2.799 
  9145.500     15.448      2.797 
  9146.000     15.545      2.803 
  9146.500     14.813      2.818 
  9147.000     14.717      2.827 
  9147.500     14.567      2.826 
  9148.000     14.733      2.817 
  9148.500     15.111      2.800 
  9149.000     19.684      2.796 
  9149.500     21.809      2.794 
  9150.000     23.536      2.797 
  9150.500     26.314      2.802 
  9151.000     28.541      2.811 
  9151.500     30.873      2.820 
  9152.000     33.452      2.823 
  9152.500     34.550      2.821 
  9153.000     31.840      2.819 
  9153.500     28.983      2.816 
  9154.000     22.653      2.813 
  9154.500     20.015      2.801 
  9155.000     20.768      2.788 
  9155.500     22.852      2.777 
  9156.000     39.784      2.775 
  9156.500     44.027      2.777 
  9157.000     42.621      2.790 
  9157.500     38.577      2.798 
  9158.000     32.283      2.803 
  9158.500     29.229      2.793 
  9159.000     29.648      2.787 
  9159.500     31.382      2.785 
  9160.000     32.794      2.788 
  9160.500     35.867      2.795 
  9161.000     38.538      2.791 
  9161.500     37.167      2.775 
  9162.000     35.390      2.768 
  9162.500     35.101      2.772 
  9163.000     37.282      2.775 
  9163.500     42.508      2.771 
  9164.000     62.071      2.763 
  9164.500     70.887      2.756 
  9165.000     66.637      2.762 
  9165.500     48.807      2.778 
  9166.000     38.040      2.798 
  9166.500     28.413      2.808 
  9167.000     21.771      2.801 
  9167.500     22.277      2.794 
  9168.000     26.024      2.789 
  9168.500     26.380      2.797 
  9169.000     24.968      2.800 
  9169.500     23.419      2.801 
  9170.000     21.579      2.801 
  9170.500     20.118      2.807 
  9171.000     19.625      2.809 
  9171.500     20.243      2.812 
  9172.000     21.288      2.808 
  9172.500     25.957      2.783 
  9173.000     30.954      2.780 
  9173.500     31.149      2.791 
  9174.000     30.426      2.792 
  9174.500     26.762      2.792 
  9175.000     23.621      2.787 
  9175.500     19.280      2.799 
  9176.000     18.723      2.829 
  9176.500     20.264      2.843 
  9177.000     20.156      2.840 
  9177.500     21.902      2.832 
  9178.000     21.301      2.835 
  9178.500     21.843      2.844 
  9179.000     21.847      2.841 
  9179.500     20.121      2.834 
  9180.000     18.541      2.829 
  9180.500     14.161      2.815 
  9181.000     14.584      2.810 
  9181.500     14.098      2.806 
  9182.000     13.854      2.802 
  9182.500     13.305      2.809 
  9183.000     13.338      2.807 
  9183.500     14.819      2.798 
  9184.000     17.418      2.794 
  9184.500     20.546      2.795 
  9185.000     22.564      2.799 
  9185.500     25.517      2.805 
  9186.000     27.402      2.807 
  9186.500     26.747      2.795 
  9187.000     24.050      2.796 
  9187.500     20.989      2.793 
  9188.000     18.576      2.780 
  9188.500     16.976      2.761 
  9189.000     14.373      2.760 
  9189.500     12.810      2.770 
  9190.000     12.373      2.811 
  9190.500     12.565      2.823 
  9191.000     12.704      2.840 
  9191.500     12.948      2.843 
  9192.000     12.826      2.840 
  9192.500     15.076      2.824 
  9193.000     17.064      2.813 
  9193.500     16.995      2.807 
