~Version Information Block
 VERS.                2.00:     CWLS LOG ASCII STANDARD - VERSION 2.000000
 WRAP.                  NO:     One Line Per Depth Step
#
~Well Information Block
#MNEM.UNIT                     Data                         Information
#----------   ------------------------------------------   ----------------
 STRT.FT                                    10450.0000:
 STOP.FT                                    16050.0000:
 STEP.FT                                        0.5000:
 NULL.                                       -999.2500:
 COMP.                                                :     COMPANY
 WELL.                                                :     WELL
 FLD .                                                :     FIELD
 CNTY.                                                :     COUNTY
 STAT.                                                :     STATE
 CTRY.                                                :     COUNTRY
 SRVC.                                                :     SERVICE COMPANY
 DATE.                                                :     DATE
 API .                                                :     API NUMBER
 UWI .                                                :     UWI NUMBER
#
~Curve Information Block
#MNEM.UNIT       API CODE      Curve Description
#----------    -------------   -------------------
 DEPT.FT                   :   Depth in Feet
 GR  .GAPI                 :   Gamma Ray
 RHOB.G/C3                 :   Bulk Density
#
~A  DEPTH         GR       RHOB  
# ...
 13400.000     39.141      2.858 
 13400.500     41.637      2.851 
 13401.000     47.223      2.842 
 13401.500     41.757      2.835 
 13402.000     93.571      2.814 
 13402.500    124.709      2.762 
 13403.000    181.244      2.730 
 13403.500    171.260      2.709 
 13404.000    188.002      2.700 
 13404.500    183.081      2.708 
 13405.000    169.929      2.728 
 13405.500    141.614      2.729 
 13406.000    114.869      2.724 
 13406.500     84.514      2.755 
 13407.000     80.339      2.779 
 13407.500     69.060      2.797 
 13408.000     55.311      2.793 
 13408.500     37.370      2.809 
 13409.000     28.551      2.812 
 13409.500     25.994      2.853 
 13410.000     25.450      2.852 
 13410.500     31.056      2.852 
 13411.000     39.626      2.842 
 13411.500     50.752      2.838 
 13412.000     56.160      2.838 
 13412.500     56.807      2.813 
 13413.000     58.593      2.803 
 13413.500     59.208      2.798 
 13414.000     57.028      2.798 
 13414.500     53.012      2.806 
 13415.000     44.677      2.841 
 13415.500     42.396      2.858 
 13416.000     50.676      2.873 
 13416.500     86.148      2.854 
 13417.000     99.632      2.800 
 13417.500    106.796      2.764 
 13418.000    100.591      2.742 
 13418.500     82.288      2.782 
 13419.000     47.040      2.829 
 13419.500     37.378      2.868 
 13420.000     33.861      2.891 
 13420.500     25.713      2.899 
 13421.000     30.484      2.907 
 13421.500     40.907      2.897 
 13422.000     58.398      2.886 
 13422.500    111.136      2.848 
 13423.000    125.243      2.802 
 13423.500    147.958      2.775 
 13424.000    157.767      2.745 
 13424.500    153.462      2.719 
 13425.000    105.862      2.698 
 13425.500     72.624      2.705 
 13426.000     54.935      2.725 
 13426.500     48.559      2.772 
 13427.000     44.951      2.807 
 13427.500     70.276      2.825 
 13428.000     82.265      2.827 
 13428.500    129.105      2.808 
 13429.000    134.317      2.765 
 13429.500    126.679      2.745 
 13430.000    117.306      2.737 
 13430.500     88.502      2.768 
 13431.000     66.696      2.800 
 13431.500     69.248      2.808 
 13432.000     81.771      2.803 
 13432.500     92.414      2.786 
 13433.000    109.435      2.753 
 13433.500    114.158      2.751 
 13434.000    117.692      2.745 
 13434.500    126.683      2.748 
 13435.000    138.869      2.757 
 13435.500    141.872      2.764 
 13436.000    147.560      2.767 
 13436.500    134.362      2.744 
 13437.000    104.041      2.730 
 13437.500     61.222      2.723 
 13438.000     43.086      2.773 
 13438.500     33.084      2.830 
 13439.000     29.731      2.871 
 13439.500     32.392      2.866 
 13440.000     34.506      2.850 
 13440.500     37.019      2.838 
 13441.000     36.407      2.828 
 13441.500     36.451      2.827 
 13442.000     39.069      2.823 
 13442.500     42.643      2.820 
 13443.000     46.369      2.812 
 13443.500     51.233      2.810 
 13444.000     55.407      2.814 
 13444.500     54.344      2.816 
 13445.000     51.685      2.818 
 13445.500     42.264      2.823 
 13446.000     37.505      2.835 
 13446.500     70.742      2.847 
 13447.000    101.533      2.857 
 13447.500    111.361      2.854 
 13448.000    101.676      2.860 
 13448.500     80.893      2.816 
 13449.000     71.166      2.804 
 13449.500     67.398      2.800 
 13450.000     64.051      2.792 
 13450.500     61.048      2.787 
 13451.000     52.318      2.781 
 13451.500     50.265      2.794 
 13452.000     42.649      2.809 
 13452.500     32.412      2.817 
 13453.000     31.558      2.817 
 13453.500     30.702      2.812 
 13454.000     37.184      2.814 
 13454.500     49.655      2.820 
 13455.000     63.367      2.826 
 13455.500     80.288      2.819 
 13456.000    103.474      2.806 
 13456.500    114.440      2.749 
 13457.000    112.101      2.732 
 13457.500    108.708      2.719 
 13458.000    103.669      2.717 
 13458.500     77.287      2.744 
 13459.000     63.150      2.758 
 13459.500     53.003      2.777 
 13460.000     38.522      2.785 
 13460.500     27.818      2.795 
 13461.000     30.151      2.818 
 13461.500     34.951      2.839 
 13462.000     41.752      2.844 
 13462.500     50.925      2.841 
 13463.000     42.733      2.825 
 13463.500     35.698      2.812 
 13464.000     29.391      2.814 
 13464.500     27.688      2.825 
 13465.000     26.823      2.868 
 13465.500     28.336      2.869 
 13466.000     35.983      2.865 
 13466.500     49.446      2.845 
 13467.000     61.621      2.819 
 13467.500     61.819      2.799 
 13468.000     62.784      2.773 
 13468.500     48.572      2.762 
 13469.000     40.258      2.766 
 13469.500     30.974      2.774 
 13470.000     26.121      2.816 
 13470.500     22.340      2.886 
 13471.000     20.553      2.907 
 13471.500     24.446      2.900 
 13472.000     31.131      2.896 
 13472.500     65.799      2.887 
 13473.000     69.608      2.885 
 13473.500    100.535      2.864 
 13474.000    113.700      2.838 
 13474.500    140.680      2.757 
 13475.000    136.834      2.735 
 13475.500    130.014      2.718 
 13476.000    136.326      2.713 
 13476.500     73.664      2.721 
 13477.000     78.968      2.766 
 13477.500     74.839      2.772 
 13478.000     79.775      2.778 
 13478.500     82.748      2.772 
 13479.000     82.538      2.762 
 13479.500     80.521      2.767 
 13480.000     76.584      2.775 
 13480.500     76.186      2.783 
 13481.000     74.293      2.786 
 13481.500     80.975      2.786 
 13482.000     87.627      2.785 
 13482.500     92.440      2.777 
 13483.000     92.295      2.772 
 13483.500     83.453      2.767 
 13484.000     77.571      2.763 
 13484.500     66.208      2.777 
 13485.000     59.861      2.796 
 13485.500     54.484      2.818 
 13486.000     53.892      2.826 
 13486.500     55.997      2.822 
 13487.000     58.371      2.817 
 13487.500     61.838      2.814 
 13488.000     67.973      2.814 
 13488.500     78.552      2.814 
 13489.000     92.812      2.810 
 13489.500     97.023      2.805 
 13490.000     98.159      2.808 
 13490.500     85.798      2.804 
 13491.000     84.105      2.801 
 13491.500     85.871      2.826 
 13492.000    116.310      2.878 
 13492.500    157.588      2.921 
 13493.000    183.462      2.835 
 13493.500    197.358      2.785 
 13494.000    192.727      2.683 
 13494.500    180.907      2.687 
 13495.000    177.591      2.684 
 13495.500    167.773      2.693 
 13496.000    162.638      2.701 
 13496.500    138.097      2.730 
 13497.000     98.260      2.762 
 13497.500     81.600      2.786 
 13498.000     74.808      2.836 
 13498.500     69.471      2.821 
 13499.000     64.787      2.813 
 13499.500     65.411      2.800 
 13500.000     68.414      2.776 
 13500.500     77.921      2.766 
 13501.000     86.276      2.761 
 13501.500     91.353      2.757 
 13502.000     94.533      2.757 
 13502.500     94.593      2.756 
 13503.000     92.481      2.778 
 13503.500     89.587      2.790 
 13504.000     87.902      2.797 
 13504.500     87.313      2.794 
 13505.000     86.688      2.783 
 13505.500     83.408      2.768 
 13506.000     80.516      2.759 
 13506.500     77.086      2.751 
 13507.000     77.069      2.744 
 13507.500     77.885      2.728 
 13508.000     79.096      2.717 
 13508.500     77.474      2.711 
 13509.000     77.368      2.710 
 13509.500     79.182      2.710 
 13510.000     82.502      2.684 
 13510.500     80.084      2.661 
 13511.000     77.657      2.693 
 13511.500     78.444      2.719 
 13512.000     84.599      2.762 
 13512.500     99.704      2.753 
 13513.000    102.269      2.746 
 13513.500     99.787      2.749 
 13514.000     92.327      2.763 
 13514.500     94.150      2.766 
 13515.000    105.214      2.764 
 13515.500    108.311      2.747 
 13516.000     99.113      2.742 
 13516.500     87.675      2.748 
 13517.000     60.519      2.775 
 13517.500     49.815      2.791 
