~Version Information Block
 VERS.                2.00:     CWLS LOG ASCII STANDARD - VERSION 2.000000
 WRAP.                  NO:     One Line Per Depth Step
#
~Well Information Block
#MNEM.UNIT                     Data                         Information
#----------   ------------------------------------------   ----------------
 STRT.FT                                     5300.0000:
 STOP.FT                                    10450.0000:
 STEP.FT                                        0.5000:
 NULL.                                       -999.2500:
 COMP.                                                :     COMPANY
 WELL.                                                :     WELL
 FLD .                                                :     FIELD
 CNTY.                                                :     COUNTY
 STAT.                                                :     STATE
 CTRY.                                                :     COUNTRY
 SRVC.                                                :     SERVICE COMPANY
 DATE.                                                :     DATE
 API .                                                :     API NUMBER
 UWI .                                                :     UWI NUMBER
#
~Curve Information Block
#MNEM.UNIT       API CODE      Curve Description
#----------    -------------   -------------------
 DEPT.FT                   :   Depth in Feet
 GR  .GAPI                 :   Gamma Ray
 RHOB.G/C3                 :   Bulk Density
#
~A  DEPTH         GR       RHOB  
# ...
  9666.000     26.785      2.775 
  9666.500     27.536      2.748 
  9667.000     28.863      2.732 
  9667.500     28.930      2.726 
  9668.000     29.163      2.724 
  9668.500     29.846      2.727 
  9669.000     29.559      2.728 
  9669.500     28.826      2.723 
  9670.000     27.435      2.713 
  9670.500     26.942      2.701 
  9671.000     26.524      2.700 
  9671.500     28.780      2.703 
  9672.000     29.398      2.706 
  9672.500     30.970      2.712 
  9673.000     30.442      2.713 
  9673.500     30.628      2.715 
  9674.000     30.622      2.718 
  9674.500     29.716      2.726 
  9675.000     28.271      2.731 
  9675.500     26.024      2.735 
  9676.000     25.405      2.737 
  9676.500     25.360      2.738 
  9677.000     27.324      2.733 
  9677.500     27.970      2.722 
  9678.000     28.713      2.719 
  9678.500     29.922      2.703 
  9679.000     31.219      2.703 
  9679.500     32.043      2.708 
  9680.000     33.652      2.712 
  9680.500     33.204      2.706 
  9681.000     32.140      2.702 
  9681.500     29.910      2.702 
  9682.000     28.133      2.700 
  9682.500     28.962      2.702 
  9683.000     30.607      2.704 
  9683.500     33.637      2.704 
  9684.000     35.959      2.701 
  9684.500     39.307      2.700 
  9685.000     40.272      2.698 
  9685.500     41.112      2.694 
  9686.000     41.794      2.712 
  9686.500     40.883      2.734 
  9687.000     40.061      2.732 
  9687.500     39.342      2.726 
  9688.000     37.966      2.707 
  9688.500     36.229      2.701 
  9689.000     35.154      2.705 
  9689.500     33.814      2.715 
  9690.000     33.215      2.723 
  9690.500     32.264      2.739 
  9691.000     32.054      2.744 
  9691.500     32.747      2.732 
  9692.000     33.457      2.723 
  9692.500     34.896      2.703 
  9693.000     36.639      2.701 
  9693.500     39.180      2.695 
  9694.000     39.710      2.686 
  9694.500     40.669      2.673 
  9695.000     41.859      2.680 
  9695.500     40.845      2.694 
  9696.000     39.488      2.701 
  9696.500     35.912      2.730 
  9697.000     34.618      2.725 
  9697.500     34.886      2.722 
  9698.000     35.696      2.717 
  9698.500     36.535      2.713 
  9699.000     38.208      2.708 
  9699.500     39.910      2.704 
  9700.000     50.762      2.695 
  9700.500     67.509      2.687 
  9701.000     85.853      2.679 
  9701.500     93.220      2.673 
  9702.000     87.566      2.672 
  9702.500     65.142      2.675 
  9703.000     56.174      2.684 
  9703.500     51.404      2.684 
  9704.000     49.209      2.681 
  9704.500     49.525      2.676 
  9705.000     56.110      2.674 
  9705.500     58.940      2.676 
  9706.000     59.969      2.676 
  9706.500     62.305      2.676 
  9707.000     62.472      2.681 
  9707.500     60.063      2.689 
  9708.000     59.058      2.694 
  9708.500     59.133      2.693 
  9709.000     59.370      2.682 
  9709.500     59.928      2.668 
  9710.000     58.317      2.669 
  9710.500     57.221      2.668 
  9711.000     47.438      2.682 
  9711.500     45.305      2.694 
  9712.000     38.601      2.699 
  9712.500     34.233      2.691 
  9713.000     28.722      2.638 
  9713.500     26.445      2.548 
  9714.000     21.879      2.394 
  9714.500     21.353      2.403 
  9715.000     22.306      2.426 
  9715.500     24.583      2.542 
  9716.000     25.988      2.634 
  9716.500     25.200      2.670 
  9717.000     24.148      2.665 
  9717.500     21.631      2.615 
  9718.000     20.746      2.558 
  9718.500     19.253      2.567 
  9719.000     19.371      2.585 
  9719.500     18.620      2.643 
  9720.000     20.165      2.650 
  9720.500     21.361      2.659 
  9721.000     21.770      2.666 
  9721.500     22.478      2.678 
  9722.000     22.401      2.690 
  9722.500     25.260      2.691 
  9723.000     31.217      2.682 
  9723.500     37.576      2.661 
  9724.000     42.166      2.647 
  9724.500     47.067      2.647 
  9725.000     47.116      2.662 
  9725.500     44.886      2.683 
  9726.000     42.534      2.697 
  9726.500     40.271      2.702 
  9727.000     40.057      2.707 
  9727.500     38.595      2.715 
  9728.000     36.374      2.719 
  9728.500     34.206      2.718 
  9729.000     33.829      2.721 
  9729.500     36.188      2.725 
  9730.000     37.773      2.689 
  9730.500     40.271      2.690 
  9731.000     39.441      2.661 
  9731.500     35.682      2.629 
  9732.000     32.253      2.632 
  9732.500     33.002      2.639 
  9733.000     37.864      2.655 
  9733.500     41.351      2.667 
  9734.000     44.619      2.685 
  9734.500     47.643      2.700 
  9735.000     46.278      2.715 
  9735.500     41.884      2.719 
  9736.000     37.602      2.718 
  9736.500     29.716      2.705 
  9737.000     25.509      2.698 
  9737.500     26.781      2.692 
  9738.000     30.577      2.692 
  9738.500     38.418      2.696 
  9739.000     39.901      2.703 
  9739.500     40.306      2.724 
  9740.000     39.471      2.747 
  9740.500     31.518      2.771 
  9741.000     26.369      2.786 
  9741.500     26.734      2.787 
  9742.000     28.602      2.777 
  9742.500     31.357      2.757 
  9743.000     31.591      2.743 
  9743.500     31.205      2.717 
  9744.000     30.271      2.708 
  9744.500     32.227      2.719 
  9745.000     33.855      2.731 
  9745.500     33.711      2.727 
  9746.000     33.323      2.594 
  9746.500     31.009      2.599 
  9747.000     30.567      2.633 
  9747.500     30.586      2.653 
  9748.000     31.655      2.680 
  9748.500     30.007      2.695 
  9749.000     29.747      2.697 
  9749.500     29.790      2.700 
  9750.000     29.051      2.704 
  9750.500     27.537      2.706 
  9751.000     26.009      2.707 
  9751.500     23.621      2.702 
  9752.000     23.673      2.702 
  9752.500     28.581      2.703 
  9753.000     35.588      2.701 
  9753.500     42.397      2.696 
  9754.000     47.747      2.686 
  9754.500     45.475      2.705 
  9755.000     40.936      2.723 
  9755.500     31.813      2.743 
  9756.000     28.714      2.762 
  9756.500     22.191      2.774 
  9757.000     20.632      2.782 
  9757.500     18.861      2.796 
  9758.000     18.095      2.802 
  9758.500     17.175      2.801 
  9759.000     17.482      2.800 
  9759.500     17.889      2.798 
  9760.000     18.425      2.795 
  9760.500     18.813      2.798 
  9761.000     19.516      2.797 
  9761.500     19.498      2.797 
  9762.000     21.091      2.799 
  9762.500     19.184      2.803 
  9763.000     15.222      2.811 
  9763.500     14.576      2.817 
  9764.000     14.793      2.815 
  9764.500     16.940      2.804 
  9765.000     21.110      2.794 
  9765.500     24.254      2.793 
  9766.000     25.631      2.792 
  9766.500     25.895      2.798 
  9767.000     25.495      2.806 
  9767.500     25.083      2.805 
  9768.000     25.115      2.799 
  9768.500     30.213      2.796 
  9769.000     35.857      2.796 
  9769.500     42.228      2.791 
  9770.000     45.159      2.788 
  9770.500     48.885      2.749 
  9771.000     51.905      2.731 
  9771.500     53.476      2.722 
  9772.000     53.954      2.721 
  9772.500     50.564      2.717 
  9773.000     44.246      2.715 
  9773.500     37.672      2.732 
  9774.000     34.139      2.767 
  9774.500     30.411      2.777 
  9775.000     29.800      2.775 
  9775.500     32.265      2.765 
  9776.000     34.443      2.752 
  9776.500     36.535      2.734 
  9777.000     35.262      2.716 
  9777.500     29.283      2.707 
  9778.000     27.215      2.704 
  9778.500     31.658      2.730 
  9779.000     38.153      2.743 
  9779.500     43.841      2.752 
  9780.000     51.866      2.751 
  9780.500     56.960      2.747 
  9781.000     58.852      2.743 
  9781.500     59.860      2.754 
  9782.000     59.044      2.767 
  9782.500     53.698      2.750 
  9783.000     42.072      2.712 
  9783.500     34.369      2.672 
