~Version Information Block
 VERS.                2.00:     CWLS LOG ASCII STANDARD - VERSION 2.000000
 WRAP.                  NO:     One Line Per Depth Step
#
~Well Information Block
#MNEM.UNIT                     Data                         Information
#----------   ------------------------------------------   ----------------
 STRT.FT                                     5300.0000:
 STOP.FT                                    10450.0000:
 STEP.FT                                        0.5000:
 NULL.                                       -999.2500:
 COMP.                                                :     COMPANY
 WELL.                                                :     WELL
 FLD .                                                :     FIELD
 CNTY.                                                :     COUNTY
 STAT.                                                :     STATE
 CTRY.                                                :     COUNTRY
 SRVC.                                                :     SERVICE COMPANY
 DATE.                                                :     DATE
 API .                                                :     API NUMBER
 UWI .                                                :     UWI NUMBER
#
~Curve Information Block
#MNEM.UNIT       API CODE      Curve Description
#----------    -------------   -------------------
 DEPT.FT                   :   Depth in Feet
 GR  .GAPI                 :   Gamma Ray
 RHOB.G/C3                 :   Bulk Density
#
~A  DEPTH         GR       RHOB  
# ...
  5654.000     44.933      2.629 
  5654.500     45.923      2.658 
  5655.000     46.531      2.653 
  5655.500     45.300      2.649 
  5656.000     43.070      2.630 
  5656.500     43.208      2.596 
  5657.000     43.779      2.570 
  5657.500     43.103      2.568 
  5658.000     43.815      2.573 
  5658.500     45.262      2.611 
  5659.000     46.320      2.671 
  5659.500     48.165      2.700 
  5660.000     49.014      2.686 
  5660.500     51.084      2.642 
  5661.000     52.779      2.608 
  5661.500     52.630      2.594 
  5662.000     51.311      2.559 
  5662.500     48.406      2.619 
  5663.000     47.474      2.648 
  5663.500     47.241      2.635 
  5664.000     49.277      2.572 
  5664.500     50.334      2.496 
  5665.000     51.418      2.477 
  5665.500     50.487      2.490 
  5666.000     50.272      2.578 
  5666.500     49.489      2.567 
  5667.000     49.518      2.564 
  5667.500     48.690      2.529 
  5668.000     48.811      2.517 
  5668.500     49.058      2.607 
  5669.000     49.587      2.601 
  5669.500     52.398      2.618 
  5670.000     53.400      2.620 
  5670.500     55.959      2.439 
  5671.000     55.889      2.448 
  5671.500     51.575      2.441 
  5672.000     46.579      2.478 
  5672.500     40.731      2.498 
  5673.000     39.606      2.532 
  5673.500     40.689      2.547 
  5674.000     43.459      2.601 
  5674.500     46.532      2.568 
  5675.000     45.833      2.491 
  5675.500     44.072      2.524 
  5676.000     41.975      2.499 
  5676.500     41.698      2.698 
  5677.000     43.837      2.677 
  5677.500     45.716      2.649 
  5678.000     46.696      2.610 
  5678.500     46.458      2.600 
  5679.000     43.829      2.602 
  5679.500     43.022      2.618 
  5680.000     43.304      2.658 
  5680.500     45.048      2.693 
  5681.000     44.884      2.653 
  5681.500     46.292      2.595 
  5682.000     46.990      2.581 
  5682.500     47.838      2.599 
  5683.000     48.051      2.637 
  5683.500     48.158      2.741 
  5684.000     49.381      2.737 
  5684.500     50.792      2.629 
  5685.000     52.002      2.546 
  5685.500     52.905      2.488 
  5686.000     52.706      2.510 
  5686.500     52.863      2.504 
  5687.000     52.199      2.482 
  5687.500     51.223      2.526 
  5688.000     50.367      2.564 
  5688.500     51.961      2.679 
  5689.000     52.449      2.657 
  5689.500     52.830      2.628 
  5690.000     53.085      2.621 
  5690.500     52.226      2.542 
  5691.000     49.882      2.460 
  5691.500     50.967      2.456 
  5692.000     51.914      2.562 
  5692.500     51.974      2.553 
  5693.000     52.023      2.569 
  5693.500     51.825      2.491 
  5694.000     52.421      2.498 
  5694.500     48.645      2.424 
  5695.000     46.214      2.655 
  5695.500     44.758      2.675 
  5696.000     45.939      2.666 
  5696.500     46.358      2.553 
  5697.000     45.402      2.550 
  5697.500     46.358      2.544 
  5698.000     48.962      2.522 
  5698.500     52.016      2.495 
  5699.000     51.881      2.511 
  5699.500     50.471      2.580 
  5700.000     50.617      2.606 
  5700.500     51.703      2.325 
  5701.000     51.385      2.275 
  5701.500     51.050      2.293 
  5702.000     50.138      2.486 
  5702.500     49.569      2.477 
  5703.000     49.616      2.489 
  5703.500     49.598      2.531 
  5704.000     49.618      2.658 
  5704.500     49.518      2.677 
  5705.000     50.379      2.615 
  5705.500     51.438      2.526 
  5706.000     51.555      2.506 
  5706.500     49.901      2.553 
  5707.000     49.620      2.710 
  5707.500     50.913      2.711 
  5708.000     51.843      2.585 
  5708.500     52.050      2.472 
  5709.000     51.406      2.442 
  5709.500     50.258      2.427 
  5710.000     50.723      2.513 
  5710.500     51.635      2.507 
  5711.000     52.633      2.578 
  5711.500     52.692      2.572 
  5712.000     51.156      2.721 
  5712.500     49.675      2.754 
  5713.000     49.726      2.757 
  5713.500     51.003      2.783 
  5714.000     51.841      2.797 
  5714.500     51.985      2.638 
  5715.000     51.667      2.420 
  5715.500     50.150      2.431 
  5716.000     48.410      2.481 
  5716.500     46.981      2.516 
  5717.000     49.400      2.421 
  5717.500     54.796      2.382 
  5718.000     62.032      2.343 
  5718.500     67.497      2.325 
  5719.000     65.772      2.309 
  5719.500     62.183      2.300 
  5720.000     50.564      2.538 
  5720.500     40.776      2.643 
  5721.000     38.249      2.769 
  5721.500     38.627      2.763 
  5722.000     38.434      2.751 
  5722.500     40.591      2.635 
  5723.000     42.613      2.623 
  5723.500     45.580      2.751 
  5724.000     47.307      2.834 
  5724.500     49.646      2.812 
  5725.000     48.935      2.653 
  5725.500     46.527      2.429 
  5726.000     44.668      2.257 
  5726.500     42.492      2.249 
  5727.000     41.834      2.312 
  5727.500     42.439      2.363 
  5728.000     45.555      2.259 
  5728.500     56.182      1.997 
  5729.000     66.533      1.523 
  5729.500     77.690      1.381 
  5730.000     83.188      1.712 
  5730.500     66.951      2.032 
  5731.000     56.645      2.017 
  5731.500     47.365      2.466 
  5732.000     43.487      2.497 
  5732.500     42.397      2.529 
  5733.000     44.721      2.561 
  5733.500     47.785      2.584 
  5734.000     48.729      2.629 
  5734.500     50.606      2.653 
  5735.000     50.756      2.678 
  5735.500     51.213      2.655 
  5736.000     51.805      2.592 
  5736.500     51.812      2.576 
  5737.000     51.181      2.588 
  5737.500     48.851      2.603 
  5738.000     47.923      2.612 
  5738.500     46.478      2.639 
  5739.000     46.486      2.664 
  5739.500     46.351      2.720 
  5740.000     46.563      2.690 
  5740.500     45.652      2.597 
  5741.000     43.750      2.557 
  5741.500     40.872      2.529 
  5742.000     40.755      2.565 
  5742.500     42.114      2.581 
  5743.000     43.309      2.562 
  5743.500     43.062      2.534 
  5744.000     40.557      2.507 
  5744.500     38.697      2.532 
  5745.000     37.048      2.543 
  5745.500     36.656      2.532 
  5746.000     35.942      2.502 
  5746.500     35.233      2.376 
  5747.000     35.637      2.361 
  5747.500     39.030      2.415 
  5748.000     41.566      2.511 
  5748.500     45.871      2.540 
  5749.000     46.969      2.579 
  5749.500     47.343      2.618 
  5750.000     47.258      2.590 
  5750.500     47.755      2.578 
  5751.000     47.979      2.570 
  5751.500     48.774      2.564 
  5752.000     49.743      2.529 
  5752.500     48.545      2.498 
  5753.000     46.354      2.468 
  5753.500     40.692      2.518 
  5754.000     36.974      2.542 
  5754.500     34.712      2.669 
  5755.000     35.442      2.746 
  5755.500     36.309      2.733 
  5756.000     37.714      2.665 
  5756.500     40.835      2.393 
  5757.000     44.210      2.330 
  5757.500     48.807      2.399 
  5758.000     54.068      2.430 
  5758.500     71.095      2.477 
  5759.000     69.460      2.474 
  5759.500     65.726      2.460 
  5760.000     63.646      2.446 
  5760.500     62.992      2.388 
  5761.000     65.986      2.343 
  5761.500     68.090      2.301 
  5762.000     64.884      2.258 
  5762.500     55.933      2.400 
  5763.000     47.568      2.527 
  5763.500     46.542      2.708 
  5764.000     45.858      2.689 
  5764.500     46.354      2.613 
  5765.000     46.266      2.575 
  5765.500     45.564      2.558 
  5766.000     45.749      2.573 
  5766.500     47.041      2.563 
  5767.000     48.521      2.541 
  5767.500     50.377      2.514 
  5768.000     50.384      2.492 
  5768.500     47.717      2.432 
  5769.000     43.235      2.284 
  5769.500     41.207      2.313 
  5770.000     40.584      2.387 
  5770.500     43.445      2.520 
  5771.000     43.783      2.527 
  5771.500     43.983      2.551 
