~Version Information Block
 VERS.                2.00:     CWLS LOG ASCII STANDARD - VERSION 2.000000
 WRAP.                  NO:     One Line Per Depth Step
#
~Well Information Block
#MNEM.UNIT                     Data                         Information
#----------   ------------------------------------------   ----------------
 STRT.FT                                     5300.0000:
 STOP.FT                                    10450.0000:
 STEP.FT                                        0.5000:
 NULL.                                       -999.2500:
 COMP.                                                :     COMPANY
 WELL.                                                :     WELL
 FLD .                                                :     FIELD
 CNTY.                                                :     COUNTY
 STAT.                                                :     STATE
 CTRY.                                                :     COUNTRY
 SRVC.                                                :     SERVICE COMPANY
 DATE.                                                :     DATE
 API .                                                :     API NUMBER
 UWI .                                                :     UWI NUMBER
#
~Curve Information Block
#MNEM.UNIT       API CODE      Curve Description
#----------    -------------   -------------------
 DEPT.FT                   :   Depth in Feet
 GR  .GAPI                 :   Gamma Ray
 RHOB.G/C3                 :   Bulk Density
#
~A  DEPTH         GR       RHOB  
# ...
  8368.000     31.982      2.808 
  8368.500     32.960      2.817 
  8369.000     32.126      2.829 
  8369.500     30.282      2.824 
  8370.000     29.632      2.818 
  8370.500     26.805      2.796 
  8371.000     25.774      2.788 
  8371.500     24.833      2.788 
  8372.000     24.063      2.790 
  8372.500     20.203      2.807 
  8373.000     18.412      2.812 
  8373.500     15.189      2.818 
  8374.000     14.684      2.813 
  8374.500     15.169      2.805 
  8375.000     18.920      2.813 
  8375.500     21.776      2.822 
  8376.000     25.396      2.821 
  8376.500     28.493      2.804 
  8377.000     31.280      2.804 
  8377.500     32.402      2.806 
  8378.000     33.038      2.807 
  8378.500     32.663      2.806 
  8379.000     30.338      2.797 
  8379.500     28.250      2.804 
  8380.000     28.301      2.811 
  8380.500     29.813      2.817 
  8381.000     30.643      2.815 
  8381.500     30.561      2.814 
  8382.000     30.286      2.816 
  8382.500     28.609      2.832 
  8383.000     27.436      2.833 
  8383.500     25.394      2.835 
  8384.000     23.176      2.841 
  8384.500     20.592      2.844 
  8385.000     20.266      2.845 
  8385.500     20.193      2.837 
  8386.000     20.734      2.825 
  8386.500     24.914      2.805 
  8387.000     30.550      2.801 
  8387.500     33.798      2.800 
  8388.000     35.782      2.799 
  8388.500     29.909      2.810 
  8389.000     24.701      2.812 
  8389.500     21.593      2.812 
  8390.000     22.273      2.815 
  8390.500     25.203      2.830 
  8391.000     26.636      2.833 
  8391.500     29.740      2.830 
  8392.000     31.980      2.824 
  8392.500     31.712      2.822 
  8393.000     30.738      2.823 
  8393.500     29.677      2.827 
  8394.000     28.657      2.832 
  8394.500     27.670      2.828 
  8395.000     26.652      2.819 
  8395.500     25.492      2.820 
  8396.000     23.802      2.830 
  8396.500     21.818      2.839 
  8397.000     20.276      2.841 
  8397.500     20.320      2.845 
  8398.000     19.875      2.847 
  8398.500     21.168      2.844 
  8399.000     21.509      2.839 
  8399.500     22.455      2.835 
  8400.000     22.738      2.835 
  8400.500     23.090      2.840 
  8401.000     23.095      2.844 
  8401.500     21.731      2.840 
  8402.000     21.117      2.839 
  8402.500     20.111      2.846 
  8403.000     20.271      2.849 
  8403.500     20.505      2.855 
  8404.000     22.716      2.861 
  8404.500     26.129      2.848 
  8405.000     27.847      2.843 
  8405.500     23.852      2.830 
  8406.000     20.688      2.827 
  8406.500     17.255      2.819 
  8407.000     16.115      2.814 
  8407.500     14.747      2.817 
  8408.000     14.432      2.833 
  8408.500     15.490      2.852 
  8409.000     18.846      2.848 
  8409.500     23.266      2.830 
  8410.000     27.969      2.820 
  8410.500     31.353      2.803 
  8411.000     34.602      2.801 
  8411.500     33.887      2.800 
  8412.000     31.292      2.800 
  8412.500     27.657      2.805 
  8413.000     20.556      2.816 
  8413.500     19.324      2.832 
  8414.000     13.555      2.842 
  8414.500     13.580      2.834 
  8415.000     16.029      2.817 
  8415.500     19.077      2.819 
  8416.000     20.850      2.825 
  8416.500     24.626      2.842 
  8417.000     28.773      2.836 
  8417.500     32.081      2.816 
  8418.000     32.337      2.801 
  8418.500     32.382      2.796 
  8419.000     32.555      2.797 
  8419.500     33.354      2.798 
  8420.000     34.164      2.804 
  8420.500     33.196      2.814 
  8421.000     31.353      2.821 
  8421.500     29.745      2.823 
  8422.000     28.392      2.826 
  8422.500     27.113      2.823 
  8423.000     25.532      2.819 
  8423.500     26.950      2.820 
  8424.000     29.448      2.826 
  8424.500     32.029      2.833 
  8425.000     31.152      2.836 
  8425.500     26.492      2.826 
  8426.000     21.862      2.818 
  8426.500     21.122      2.817 
  8427.000     21.337      2.816 
  8427.500     28.159      2.812 
  8428.000     30.152      2.810 
  8428.500     37.208      2.814 
  8429.000     39.824      2.820 
  8429.500     41.819      2.822 
  8430.000     42.016      2.823 
  8430.500     35.543      2.834 
  8431.000     29.008      2.844 
  8431.500     27.151      2.848 
  8432.000     28.683      2.841 
  8432.500     30.809      2.828 
  8433.000     30.735      2.832 
  8433.500     29.118      2.841 
  8434.000     26.319      2.844 
  8434.500     23.838      2.833 
  8435.000     21.784      2.826 
  8435.500     18.227      2.826 
  8436.000     15.593      2.826 
  8436.500     12.082      2.824 
  8437.000     10.838      2.826 
  8437.500     10.761      2.824 
  8438.000     10.345      2.821 
  8438.500     13.269      2.792 
  8439.000     16.774      2.783 
  8439.500     20.833      2.778 
  8440.000     23.205      2.781 
  8440.500     26.125      2.801 
  8441.000     29.591      2.808 
  8441.500     30.325      2.810 
  8442.000     32.986      2.810 
  8442.500     34.852      2.810 
  8443.000     39.837      2.808 
  8443.500     41.067      2.803 
  8444.000     53.374      2.798 
  8444.500     63.623      2.801 
  8445.000     59.606      2.812 
  8445.500     47.721      2.828 
  8446.000     39.319      2.836 
  8446.500     27.511      2.842 
  8447.000     24.411      2.827 
  8447.500     24.800      2.816 
  8448.000     25.645      2.810 
  8448.500     28.098      2.812 
  8449.000     30.197      2.821 
  8449.500     34.565      2.831 
  8450.000     39.983      2.845 
  8450.500     49.315      2.840 
  8451.000     51.691      2.826 
  8451.500     53.034      2.810 
  8452.000     53.337      2.802 
  8452.500     48.355      2.799 
  8453.000     43.915      2.805 
  8453.500     43.230      2.812 
  8454.000     46.567      2.816 
  8454.500     53.527      2.816 
  8455.000     50.851      2.810 
  8455.500     43.780      2.807 
  8456.000     32.778      2.809 
  8456.500     28.545      2.822 
  8457.000     27.994      2.836 
  8457.500     28.416      2.845 
  8458.000     29.008      2.844 
  8458.500     28.849      2.834 
  8459.000     28.970      2.821 
  8459.500     29.916      2.807 
  8460.000     34.797      2.801 
  8460.500     42.631      2.801 
  8461.000     44.090      2.807 
  8461.500     43.961      2.816 
  8462.000     41.498      2.817 
  8462.500     30.011      2.828 
  8463.000     24.760      2.832 
  8463.500     22.214      2.834 
  8464.000     22.792      2.831 
  8464.500     22.571      2.819 
  8465.000     22.387      2.808 
  8465.500     21.804      2.803 
  8466.000     21.810      2.804 
  8466.500     23.956      2.824 
  8467.000     24.730      2.844 
  8467.500     25.552      2.855 
  8468.000     27.335      2.860 
  8468.500     29.835      2.846 
  8469.000     31.304      2.816 
  8469.500     31.339      2.803 
  8470.000     32.139      2.787 
  8470.500     31.227      2.794 
  8471.000     30.464      2.811 
  8471.500     28.853      2.831 
  8472.000     26.552      2.833 
  8472.500     24.637      2.821 
  8473.000     21.867      2.816 
  8473.500     20.671      2.818 
  8474.000     20.133      2.838 
  8474.500     23.087      2.850 
  8475.000     28.632      2.842 
  8475.500     37.585      2.823 
  8476.000     42.034      2.812 
  8476.500     39.772      2.818 
  8477.000     35.107      2.827 
  8477.500     29.238      2.838 
  8478.000     26.906      2.833 
  8478.500     24.613      2.811 
  8479.000     23.575      2.802 
  8479.500     22.282      2.801 
  8480.000     22.224      2.800 
  8480.500     23.375      2.827 
  8481.000     24.156      2.839 
  8481.500     24.160      2.849 
  8482.000     24.444      2.825 
  8482.500     24.431      2.793 
  8483.000     24.185      2.795 
  8483.500     24.191      2.811 
  8484.000     24.237      2.824 
  8484.500     24.185      2.840 
  8485.000     24.235      2.837 
  8485.500     24.224      2.834 
