~Version Information Block
 VERS.                2.00:     CWLS LOG ASCII STANDARD - VERSION 2.000000
 WRAP.                  NO:     One Line Per Depth Step
#
~Well Information Block
#MNEM.UNIT                     Data                         Information
#----------   ------------------------------------------   ----------------
 STRT.FT                                    10450.0000:
 STOP.FT                                    16050.0000:
 STEP.FT                                        0.5000:
 NULL.                                       -999.2500:
 COMP.                                                :     COMPANY
 WELL.                                                :     WELL
 FLD .                                                :     FIELD
 CNTY.                                                :     COUNTY
 STAT.                                                :     STATE
 CTRY.                                                :     COUNTRY
 SRVC.                                                :     SERVICE COMPANY
 DATE.                                                :     DATE
 API .                                                :     API NUMBER
 UWI .                                                :     UWI NUMBER
#
~Curve Information Block
#MNEM.UNIT       API CODE      Curve Description
#----------    -------------   -------------------
 DEPT.FT                   :   Depth in Feet
 GR  .GAPI                 :   Gamma Ray
 RHOB.G/C3                 :   Bulk Density
#
~A  DEPTH         GR       RHOB  
# ...
 13754.000     24.236      2.835 
 13754.500     20.317      2.846 
 13755.000     19.216      2.850 
 13755.500     19.089      2.856 
 13756.000     19.335      2.854 
 13756.500     18.661      2.834 
 13757.000     17.477      2.829 
 13757.500     18.194      2.833 
 13758.000     19.350      2.839 
 13758.500     20.922      2.840 
 13759.000     21.500      2.830 
 13759.500     22.181      2.824 
 13760.000     23.063      2.826 
 13760.500     25.353      2.834 
 13761.000     26.537      2.831 
 13761.500     27.084      2.829 
 13762.000     26.736      2.822 
 13762.500     24.833      2.830 
 13763.000     24.103      2.837 
 13763.500     24.148      2.837 
 13764.000     27.957      2.830 
 13764.500     33.607      2.821 
 13765.000     40.317      2.825 
 13765.500     42.428      2.827 
 13766.000     46.228      2.819 
 13766.500     45.018      2.812 
 13767.000     43.317      2.802 
 13767.500     40.406      2.799 
 13768.000     39.587      2.801 
 13768.500     37.735      2.818 
 13769.000     36.904      2.817 
 13769.500     35.504      2.815 
 13770.000     33.965      2.813 
 13770.500     30.636      2.831 
 13771.000     27.667      2.846 
 13771.500     26.848      2.848 
 13772.000     26.106      2.844 
 13772.500     24.850      2.829 
 13773.000     24.148      2.817 
 13773.500     23.267      2.812 
 13774.000     23.283      2.817 
 13774.500     23.942      2.825 
 13775.000     24.309      2.831 
 13775.500     24.776      2.834 
 13776.000     23.658      2.834 
 13776.500     19.960      2.835 
 13777.000     18.461      2.831 
 13777.500     16.986      2.825 
 13778.000     16.768      2.820 
 13778.500     19.101      2.822 
 13779.000     20.011      2.826 
 13779.500     26.246      2.830 
 13780.000     31.887      2.828 
 13780.500     37.995      2.822 
 13781.000     36.581      2.817 
 13781.500     38.225      2.816 
 13782.000     23.713      2.815 
 13782.500     20.760      2.809 
 13783.000     21.755      2.806 
 13783.500     24.459      2.807 
 13784.000     26.186      2.816 
 13784.500     29.793      2.841 
 13785.000     30.078      2.848 
 13785.500     28.100      2.848 
 13786.000     26.384      2.834 
 13786.500     24.341      2.832 
 13787.000     29.073      2.830 
 13787.500     38.270      2.830 
 13788.000     50.706      2.823 
 13788.500     58.099      2.817 
 13789.000     57.894      2.806 
 13789.500     50.029      2.806 
 13790.000     31.063      2.808 
 13790.500     21.255      2.811 
 13791.000     15.363      2.812 
 13791.500     14.882      2.816 
 13792.000     13.904      2.823 
 13792.500     14.568      2.845 
 13793.000     15.379      2.846 
 13793.500     20.035      2.842 
 13794.000     23.867      2.840 
 13794.500     32.123      2.843 
 13795.000     33.869      2.838 
 13795.500     34.041      2.831 
 13796.000     32.850      2.825 
 13796.500     25.301      2.840 
 13797.000     25.746      2.850 
 13797.500     25.669      2.856 
 13798.000     25.887      2.851 
 13798.500     26.296      2.838 
 13799.000     25.529      2.836 
 13799.500     23.708      2.842 
 13800.000     22.212      2.844 
 13800.500     22.207      2.846 
 13801.000     21.361      2.848 
 13801.500     20.836      2.852 
 13802.000     23.311      2.857 
 13802.500     25.585      2.860 
 13803.000     27.996      2.853 
 13803.500     30.403      2.837 
 13804.000     32.820      2.823 
 13804.500     34.743      2.824 
 13805.000     35.457      2.836 
 13805.500     36.588      2.840 
 13806.000     38.923      2.845 
 13806.500     40.296      2.842 
 13807.000     40.437      2.837 
 13807.500     39.504      2.828 
 13808.000     37.723      2.813 
 13808.500     40.086      2.837 
 13809.000     45.180      2.851 
 13809.500     53.194      2.877 
 13810.000     56.710      2.885 
 13810.500     61.348      2.847 
 13811.000     61.416      2.824 
 13811.500     53.778      2.819 
 13812.000     49.010      2.828 
 13812.500     37.680      2.841 
 13813.000     30.670      2.843 
 13813.500     26.360      2.842 
 13814.000     25.332      2.842 
 13814.500     24.534      2.854 
 13815.000     25.463      2.856 
 13815.500     26.477      2.856 
 13816.000     27.112      2.857 
 13816.500     26.994      2.851 
 13817.000     27.113      2.855 
 13817.500     26.463      2.854 
 13818.000     25.749      2.837 
 13818.500     24.759      2.829 
 13819.000     25.296      2.819 
 13819.500     26.249      2.819 
 13820.000     28.388      2.816 
 13820.500     30.809      2.823 
 13821.000     30.948      2.829 
 13821.500     30.753      2.829 
 13822.000     29.207      2.821 
 13822.500     26.950      2.828 
 13823.000     23.966      2.840 
 13823.500     23.285      2.844 
 13824.000     23.068      2.840 
 13824.500     21.518      2.839 
 13825.000     20.056      2.852 
 13825.500     20.253      2.866 
 13826.000     20.311      2.875 
 13826.500     21.380      2.861 
 13827.000     22.137      2.854 
 13827.500     22.620      2.854 
 13828.000     22.432      2.855 
 13828.500     21.299      2.870 
 13829.000     20.697      2.879 
 13829.500     20.843      2.882 
 13830.000     20.810      2.876 
 13830.500     22.433      2.867 
 13831.000     23.890      2.869 
 13831.500     27.085      2.870 
 13832.000     29.890      2.865 
 13832.500     32.872      2.837 
 13833.000     32.428      2.829 
 13833.500     32.460      2.823 
 13834.000     32.428      2.832 
 13834.500     32.317      2.846 
 13835.000     32.277      2.849 
 13835.500     32.210      2.851 
 13836.000     32.142      2.844 
 13836.500     32.083      2.837 
 13837.000     32.019      2.840 
 13837.500     31.947      2.853 
 13838.000     31.907      2.864 
 13838.500     31.822      2.866 
 13839.000     31.659      2.864 
 13839.500     29.941      2.862 
 13840.000     29.013      2.849 
 13840.500     28.887      2.839 
 13841.000     30.216      2.835 
 13841.500     31.230      2.840 
 13842.000     31.838      2.845 
 13842.500     33.833      2.841 
 13843.000     34.801      2.844 
 13843.500     36.435      2.847 
 13844.000     36.419      2.855 
 13844.500     34.263      2.820 
 13845.000     32.751      2.825 
 13845.500     31.837      2.839 
 13846.000     31.903      2.843 
 13846.500     31.087      2.840 
 13847.000     30.695      2.832 
 13847.500     29.247      2.833 
 13848.000     29.442      2.843 
 13848.500     29.896      2.845 
 13849.000     30.923      2.843 
 13849.500     30.510      2.843 
 13850.000     30.914      2.854 
 13850.500     30.063      2.879 
 13851.000     30.384      2.883 
 13851.500     31.080      2.869 
 13852.000     30.944      2.852 
 13852.500     30.869      2.846 
 13853.000     29.956      2.853 
 13853.500     29.258      2.857 
 13854.000     27.981      2.869 
 13854.500     27.347      2.849 
 13855.000     26.296      2.836 
 13855.500     26.912      2.837 
 13856.000     27.077      2.861 
 13856.500     26.866      2.872 
 13857.000     26.623      2.875 
 13857.500     26.800      2.856 
 13858.000     27.634      2.847 
 13858.500     28.538      2.835 
 13859.000     28.554      2.837 
 13859.500     29.049      2.844 
 13860.000     29.329      2.856 
 13860.500     30.364      2.863 
 13861.000     29.929      2.869 
 13861.500     29.973      2.870 
 13862.000     30.382      2.870 
 13862.500     31.061      2.859 
 13863.000     30.991      2.847 
 13863.500     30.598      2.837 
 13864.000     29.990      2.832 
 13864.500     29.257      2.853 
 13865.000     27.950      2.871 
 13865.500     27.859      2.867 
 13866.000     27.787      2.851 
 13866.500     28.013      2.851 
 13867.000     28.829      2.859 
 13867.500     29.449      2.875 
 13868.000     29.546      2.869 
 13868.500     30.276      2.861 
 13869.000     30.633      2.847 
 13869.500     32.250      2.843 
 13870.000     32.727      2.835 
 13870.500     33.463      2.857 
 13871.000     33.090      2.868 
 13871.500     33.067      2.870 
