~Version Information Block
 VERS.                2.00:     CWLS LOG ASCII STANDARD - VERSION 2.000000
 WRAP.                  NO:     One Line Per Depth Step
#
~Well Information Block
#MNEM.UNIT                     Data                         Information
#----------   ------------------------------------------   ----------------
 STRT.FT                                    10450.0000:
 STOP.FT                                    16050.0000:
 STEP.FT                                        0.5000:
 NULL.                                       -999.2500:
 COMP.                                                :     COMPANY
 WELL.                                                :     WELL
 FLD .                                                :     FIELD
 CNTY.                                                :     COUNTY
 STAT.                                                :     STATE
 CTRY.                                                :     COUNTRY
 SRVC.                                                :     SERVICE COMPANY
 DATE.                                                :     DATE
 API .                                                :     API NUMBER
 UWI .                                                :     UWI NUMBER
#
~Curve Information Block
#MNEM.UNIT       API CODE      Curve Description
#----------    -------------   -------------------
 DEPT.FT                   :   Depth in Feet
 GR  .GAPI                 :   Gamma Ray
 RHOB.G/C3                 :   Bulk Density
#
~A  DEPTH         GR       RHOB  
# ...
 15524.000     20.141      2.856 
 15524.500     21.294      2.859 
 15525.000     23.870      2.854 
 15525.500     27.446      2.851 
 15526.000     30.924      2.841 
 15526.500     34.826      2.834 
 15527.000     34.888      2.831 
 15527.500     32.079      2.824 
 15528.000     31.093      2.826 
 15528.500     31.528      2.834 
 15529.000     32.585      2.851 
 15529.500     33.499      2.870 
 15530.000     34.297      2.877 
 15530.500     30.693      2.862 
 15531.000     28.034      2.852 
 15531.500     25.981      2.849 
 15532.000     24.689      2.854 
 15532.500     23.897      2.863 
 15533.000     23.513      2.863 
 15533.500     22.961      2.853 
 15534.000     21.691      2.845 
 15534.500     21.580      2.831 
 15535.000     21.455      2.830 
 15535.500     22.300      2.827 
 15536.000     23.926      2.823 
 15536.500     25.335      2.820 
 15537.000     26.033      2.817 
 15537.500     26.875      2.819 
 15538.000     27.648      2.823 
 15538.500     30.813      2.830 
 15539.000     33.981      2.830 
 15539.500     38.094      2.835 
 15540.000     39.856      2.848 
 15540.500     43.536      2.860 
 15541.000     45.357      2.839 
 15541.500     47.671      2.809 
 15542.000     48.360      2.801 
 15542.500     49.604      2.814 
 15543.000     51.083      2.825 
 15543.500     51.305      2.827 
 15544.000     52.105      2.810 
 15544.500     52.013      2.807 
 15545.000     52.861      2.811 
 15545.500     53.037      2.814 
 15546.000     53.780      2.792 
 15546.500     52.057      2.787 
 15547.000     51.221      2.806 
 15547.500     52.211      2.832 
 15548.000     53.194      2.846 
 15548.500     55.414      2.857 
 15549.000     54.440      2.848 
 15549.500     53.539      2.828 
 15550.000     52.896      2.834 
 15550.500     53.003      2.834 
 15551.000     52.766      2.836 
 15551.500     52.168      2.837 
 15552.000     51.084      2.827 
 15552.500     46.999      2.820 
 15553.000     43.518      2.823 
 15553.500     39.693      2.825 
 15554.000     39.366      2.835 
 15554.500     34.054      2.842 
 15555.000     30.724      2.849 
 15555.500     24.580      2.858 
 15556.000     21.114      2.862 
 15556.500     17.486      2.883 
 15557.000     15.448      2.892 
 15557.500     14.403      2.910 
 15558.000     14.269      2.915 
 15558.500     14.043      2.909 
 15559.000     12.661      2.897 
 15559.500     13.652      2.893 
 15560.000     13.846      2.888 
 15560.500     14.618      2.876 
 15561.000     14.285      2.865 
 15561.500     13.664      2.866 
 15562.000     14.020      2.866 
 15562.500     15.468      2.853 
 15563.000     15.339      2.850 
 15563.500     16.200      2.857 
 15564.000     16.152      2.863 
 15564.500     17.530      2.871 
 15565.000     19.186      2.867 
 15565.500     20.199      2.864 
 15566.000     20.877      2.859 
 15566.500     20.153      2.854 
 15567.000     20.202      2.849 
 15567.500     21.767      2.853 
 15568.000     24.448      2.857 
 15568.500     29.652      2.850 
 15569.000     32.481      2.831 
 15569.500     36.105      2.820 
 15570.000     39.783      2.830 
 15570.500     44.040      2.852 
 15571.000     46.643      2.838 
 15571.500     47.459      2.825 
 15572.000     49.097      2.782 
 15572.500     52.020      2.770 
 15573.000     52.411      2.780 
 15573.500     48.694      2.784 
 15574.000     42.058      2.788 
 15574.500     36.464      2.791 
 15575.000     32.009      2.801 
 15575.500     30.372      2.814 
 15576.000     29.074      2.818 
 15576.500     26.660      2.847 
 15577.000     24.111      2.858 
 15577.500     23.289      2.880 
 15578.000     21.730      2.871 
 15578.500     21.758      2.856 
 15579.000     20.026      2.847 
 15579.500     20.068      2.843 
 15580.000     21.674      2.852 
 15580.500     22.304      2.879 
 15581.000     22.997      2.907 
 15581.500     23.115      2.899 
 15582.000     23.166      2.885 
 15582.500     23.147      2.820 
 15583.000     23.069      2.819 
 15583.500     23.785      2.824 
 15584.000     23.890      2.831 
 15584.500     24.024      2.843 
 15585.000     23.255      2.845 
 15585.500     23.188      2.852 
 15586.000     23.043      2.852 
 15586.500     23.109      2.857 
 15587.000     21.783      2.858 
 15587.500     21.829      2.858 
 15588.000     21.979      2.852 
 15588.500     24.214      2.838 
 15589.000     25.379      2.824 
 15589.500     25.407      2.816 
 15590.000     25.608      2.816 
 15590.500     24.979      2.821 
 15591.000     25.728      2.817 
 15591.500     26.314      2.807 
 15592.000     26.254      2.804 
 15592.500     26.296      2.805 
 15593.000     26.269      2.809 
 15593.500     26.241      2.810 
 15594.000     26.386      2.814 
 15594.500     25.551      2.817 
 15595.000     26.142      2.820 
 15595.500     26.236      2.827 
 15596.000     26.323      2.835 
 15596.500     26.236      2.834 
 15597.000     26.811      2.824 
 15597.500     27.566      2.817 
 15598.000     27.030      2.818 
 15598.500     26.320      2.823 
 15599.000     25.568      2.830 
 15599.500     26.287      2.838 
 15600.000     26.864      2.834 
 15600.500     26.332      2.825 
 15601.000     27.117      2.822 
 15601.500     28.157      2.828 
 15602.000     29.802      2.836 
 15602.500     29.178      2.835 
 15603.000     28.423      2.832 
 15603.500     28.326      2.821 
 15604.000     29.346      2.820 
 15604.500     31.135      2.823 
 15605.000     31.674      2.824 
 15605.500     32.989      2.824 
 15606.000     33.920      2.822 
 15606.500     34.113      2.825 
 15607.000     32.613      2.826 
 15607.500     32.554      2.840 
 15608.000     32.613      2.845 
 15608.500     31.950      2.844 
 15609.000     31.086      2.824 
 15609.500     29.423      2.796 
 15610.000     29.987      2.781 
 15610.500     30.660      2.787 
 15611.000     30.157      2.804 
 15611.500     30.184      2.828 
 15612.000     30.729      2.834 
 15612.500     31.638      2.814 
 15613.000     31.767      2.803 
 15613.500     31.648      2.804 
 15614.000     30.885      2.816 
 15614.500     30.890      2.831 
 15615.000     30.060      2.829 
 15615.500     30.311      2.823 
 15616.000     29.705      2.819 
 15616.500     30.267      2.821 
 15617.000     30.161      2.823 
 15617.500     30.209      2.830 
 15618.000     30.054      2.841 
 15618.500     29.195      2.852 
 15619.000     28.411      2.851 
 15619.500     27.637      2.839 
 15620.000     27.640      2.836 
 15620.500     29.874      2.834 
 15621.000     31.556      2.831 
 15621.500     33.203      2.829 
 15622.000     33.868      2.826 
 15622.500     32.530      2.835 
 15623.000     31.186      2.838 
 15623.500     30.287      2.834 
 15624.000     30.436      2.825 
 15624.500     30.565      2.817 
 15625.000     30.976      2.816 
 15625.500     31.708      2.810 
 15626.000     32.695      2.810 
 15626.500     31.827      2.821 
 15627.000     30.467      2.850 
 15627.500     30.001      2.865 
 15628.000     29.298      2.869 
 15628.500     27.917      2.853 
 15629.000     27.754      2.842 
 15629.500     26.905      2.842 
 15630.000     27.363      2.845 
 15630.500     26.858      2.850 
 15631.000     26.054      2.842 
 15631.500     25.458      2.833 
 15632.000     25.472      2.824 
 15632.500     25.394      2.837 
 15633.000     24.564      2.848 
 15633.500     25.112      2.854 
 15634.000     25.331      2.844 
 15634.500     25.007      2.819 
 15635.000     25.752      2.820 
 15635.500     26.422      2.828 
 15636.000     27.132      2.843 
 15636.500     27.079      2.858 
 15637.000     26.974      2.862 
 15637.500     27.687      2.857 
 15638.000     27.935      2.854 
 15638.500     27.085      2.856 
 15639.000     26.010      2.859 
 15639.500     25.480      2.858 
 15640.000     25.264      2.855 
 15640.500     25.403      2.848 
 15641.000     24.532      2.855 
 15641.500     25.326      2.871 
