~Version Information Block
 VERS.                2.00:     CWLS LOG ASCII STANDARD - VERSION 2.000000
 WRAP.                  NO:     One Line Per Depth Step
#
~Well Information Block
#MNEM.UNIT                     Data                         Information
#----------   ------------------------------------------   ----------------
 STRT.FT                                     5300.0000:
 STOP.FT                                    10450.0000:
 STEP.FT                                        0.5000:
 NULL.                                       -999.2500:
 COMP.                                                :     COMPANY
 WELL.                                                :     WELL
 FLD .                                                :     FIELD
 CNTY.                                                :     COUNTY
 STAT.                                                :     STATE
 CTRY.                                                :     COUNTRY
 SRVC.                                                :     SERVICE COMPANY
 DATE.                                                :     DATE
 API .                                                :     API NUMBER
 UWI .                                                :     UWI NUMBER
#
~Curve Information Block
#MNEM.UNIT       API CODE      Curve Description
#----------    -------------   -------------------
 DEPT.FT                   :   Depth in Feet
 GR  .GAPI                 :   Gamma Ray
 RHOB.G/C3                 :   Bulk Density
#
~A  DEPTH         GR       RHOB  
# ...
  6598.000     19.596      2.720 
  6598.500     19.234      2.633 
  6599.000     18.627      2.587 
  6599.500     19.843      2.568 
  6600.000     20.724      2.560 
  6600.500     21.103      2.626 
  6601.000     22.818      2.702 
  6601.500     24.495      2.762 
  6602.000     22.782      2.789 
  6602.500     21.036      2.772 
  6603.000     18.847      2.666 
  6603.500     14.793      2.648 
  6604.000     13.817      2.587 
  6604.500     14.288      2.620 
  6605.000     17.454      2.630 
  6605.500     20.872      2.643 
  6606.000     20.948      2.642 
  6606.500     21.126      2.653 
  6607.000     20.842      2.661 
  6607.500     20.620      2.641 
  6608.000     21.921      2.599 
  6608.500     20.770      2.556 
  6609.000     22.668      2.566 
  6609.500     22.365      2.589 
  6610.000     21.778      2.661 
  6610.500     21.349      2.719 
  6611.000     20.453      2.717 
  6611.500     19.637      2.702 
  6612.000     18.617      2.670 
  6612.500     15.534      2.589 
  6613.000     14.033      2.573 
  6613.500     13.784      2.569 
  6614.000     14.560      2.587 
  6614.500     14.585      2.673 
  6615.000     15.207      2.684 
  6615.500     14.514      2.691 
  6616.000     14.809      2.683 
  6616.500     14.063      2.661 
  6617.000     13.712      2.649 
  6617.500     15.337      2.642 
  6618.000     19.028      2.618 
  6618.500     22.977      2.629 
  6619.000     25.261      2.668 
  6619.500     26.814      2.701 
  6620.000     27.420      2.721 
  6620.500     25.203      2.734 
  6621.000     21.670      2.706 
  6621.500     20.834      2.632 
  6622.000     20.444      2.610 
  6622.500     19.500      2.577 
  6623.000     17.957      2.601 
  6623.500     17.961      2.602 
  6624.000     18.996      2.603 
  6624.500     20.883      2.615 
  6625.000     25.012      2.683 
  6625.500     28.590      2.729 
  6626.000     29.169      2.707 
  6626.500     26.310      2.699 
  6627.000     22.787      2.697 
  6627.500     17.846      2.698 
  6628.000     14.624      2.693 
  6628.500     13.075      2.689 
  6629.000     13.198      2.658 
  6629.500     15.112      2.644 
  6630.000     18.561      2.596 
  6630.500     20.928      2.629 
  6631.000     24.483      2.725 
  6631.500     31.788      2.742 
  6632.000     39.632      2.724 
  6632.500     43.440      2.736 
  6633.000     42.552      2.800 
  6633.500     40.690      2.865 
  6634.000     38.037      2.837 
  6634.500     31.879      2.776 
  6635.000     28.059      2.733 
  6635.500     25.132      2.735 
  6636.000     22.605      2.742 
  6636.500     27.052      2.764 
  6637.000     29.989      2.773 
  6637.500     34.091      2.781 
  6638.000     34.624      2.789 
  6638.500     32.977      2.795 
  6639.000     31.105      2.796 
  6639.500     29.762      2.796 
  6640.000     28.210      2.797 
  6640.500     26.997      2.794 
  6641.000     25.876      2.791 
  6641.500     25.882      2.788 
  6642.000     25.202      2.784 
  6642.500     24.083      2.773 
  6643.000     23.438      2.762 
  6643.500     24.181      2.715 
  6644.000     26.340      2.813 
  6644.500     25.962      2.827 
  6645.000     22.643      2.854 
  6645.500     19.901      2.853 
  6646.000     19.215      2.650 
  6646.500     21.021      2.659 
  6647.000     23.559      2.653 
  6647.500     28.918      2.720 
  6648.000     30.591      2.773 
  6648.500     30.546      2.797 
  6649.000     29.148      2.788 
  6649.500     27.734      2.770 
  6650.000     26.191      2.757 
  6650.500     24.888      2.728 
  6651.000     22.871      2.718 
  6651.500     22.684      2.717 
  6652.000     22.449      2.751 
  6652.500     23.342      2.768 
  6653.000     23.520      2.766 
  6653.500     24.159      2.753 
  6654.000     23.425      2.731 
  6654.500     21.976      2.694 
  6655.000     20.063      2.683 
  6655.500     17.131      2.636 
  6656.000     16.263      2.608 
  6656.500     14.031      2.633 
  6657.000     14.000      2.645 
  6657.500     13.732      2.663 
  6658.000     14.388      2.671 
  6658.500     13.793      2.679 
  6659.000     14.040      2.692 
  6659.500     14.909      2.704 
  6660.000     15.767      2.725 
  6660.500     18.548      2.690 
  6661.000     19.906      2.663 
  6661.500     20.003      2.659 
  6662.000     20.288      2.701 
  6662.500     20.325      2.753 
  6663.000     20.940      2.739 
  6663.500     20.941      2.697 
  6664.000     19.633      2.769 
  6664.500     18.649      2.757 
  6665.000     17.601      2.746 
  6665.500     17.624      2.665 
  6666.000     20.086      2.571 
  6666.500     21.349      2.578 
  6667.000     22.367      2.619 
  6667.500     21.820      2.661 
  6668.000     20.906      2.697 
  6668.500     19.433      2.699 
  6669.000     20.420      2.683 
  6669.500     21.973      2.675 
  6670.000     24.743      2.677 
  6670.500     27.488      2.675 
  6671.000     26.743      2.665 
  6671.500     25.875      2.660 
  6672.000     24.775      2.677 
  6672.500     26.244      2.757 
  6673.000     27.107      2.791 
  6673.500     26.331      2.811 
  6674.000     25.777      2.817 
  6674.500     26.058      2.818 
  6675.000     27.564      2.817 
  6675.500     27.509      2.790 
  6676.000     28.097      2.773 
  6676.500     29.594      2.802 
  6677.000     31.308      2.823 
  6677.500     32.772      2.885 
  6678.000     31.218      2.861 
  6678.500     26.952      2.768 
  6679.000     25.926      2.622 
  6679.500     26.822      2.626 
  6680.000     28.741      2.639 
  6680.500     28.939      2.728 
  6681.000     28.699      2.764 
  6681.500     27.370      2.791 
  6682.000     27.616      2.800 
  6682.500     28.252      2.813 
  6683.000     29.678      2.825 
  6683.500     29.609      2.857 
  6684.000     28.975      2.847 
  6684.500     27.928      2.801 
  6685.000     25.266      2.808 
  6685.500     22.092      2.799 
  6686.000     22.155      2.790 
  6686.500     19.567      2.739 
  6687.000     18.426      2.688 
  6687.500     17.186      2.645 
  6688.000     16.776      2.691 
  6688.500     23.363      2.810 
  6689.000     22.861      2.827 
  6689.500     33.780      2.832 
  6690.000     33.196      2.819 
  6690.500     32.933      2.774 
  6691.000     31.968      2.783 
  6691.500     31.937      2.806 
  6692.000     32.261      2.817 
  6692.500     33.604      2.836 
  6693.000     32.669      2.858 
  6693.500     31.130      2.801 
  6694.000     26.623      2.810 
  6694.500     21.098      2.738 
  6695.000     17.284      2.732 
  6695.500     16.264      2.722 
  6696.000     17.216      2.731 
  6696.500     17.075      2.767 
  6697.000     17.917      2.760 
  6697.500     16.509      2.730 
  6698.000     17.035      2.701 
  6698.500     15.935      2.657 
  6699.000     18.169      2.672 
  6699.500     21.293      2.705 
  6700.000     24.625      2.699 
  6700.500     28.395      2.678 
  6701.000     30.471      2.617 
  6701.500     31.893      2.593 
  6702.000     29.857      2.699 
  6702.500     27.235      2.779 
  6703.000     25.918      2.819 
  6703.500     26.537      2.822 
  6704.000     26.055      2.804 
  6704.500     24.237      2.789 
  6705.000     22.356      2.771 
  6705.500     21.093      2.746 
  6706.000     21.123      2.717 
  6706.500     20.364      2.689 
  6707.000     18.515      2.663 
  6707.500     17.722      2.633 
  6708.000     17.095      2.605 
  6708.500     19.502      2.574 
  6709.000     24.567      2.587 
  6709.500     29.679      2.626 
  6710.000     35.144      2.687 
  6710.500     43.713      2.741 
  6711.000     51.071      2.777 
  6711.500     53.285      2.799 
  6712.000     49.206      2.810 
  6712.500     35.347      2.820 
  6713.000     31.173      2.822 
  6713.500     25.993      2.814 
  6714.000     26.481      2.805 
  6714.500     29.777      2.769 
  6715.000     29.533      2.760 
  6715.500     26.245      2.764 
