~Version Information Block
 VERS.                2.00:     CWLS LOG ASCII STANDARD - VERSION 2.000000
 WRAP.                  NO:     One Line Per Depth Step
#
~Well Information Block
#MNEM.UNIT                     Data                         Information
#----------   ------------------------------------------   ----------------
 STRT.FT                                    10450.0000:
 STOP.FT                                    16050.0000:
 STEP.FT                                        0.5000:
 NULL.                                       -999.2500:
 COMP.                                                :     COMPANY
 WELL.                                                :     WELL
 FLD .                                                :     FIELD
 CNTY.                                                :     COUNTY
 STAT.                                                :     STATE
 CTRY.                                                :     COUNTRY
 SRVC.                                                :     SERVICE COMPANY
 DATE.                                                :     DATE
 API .                                                :     API NUMBER
 UWI .                                                :     UWI NUMBER
#
~Curve Information Block
#MNEM.UNIT       API CODE      Curve Description
#----------    -------------   -------------------
 DEPT.FT                   :   Depth in Feet
 GR  .GAPI                 :   Gamma Ray
 RHOB.G/C3                 :   Bulk Density
#
~A  DEPTH         GR       RHOB  
# ...
 10804.000     19.235      2.824 
 10804.500     21.473      2.840 
 10805.000     24.998      2.854 
 10805.500     29.126      2.855 
 10806.000     31.757      2.853 
 10806.500     33.950      2.833 
 10807.000     34.490      2.823 
 10807.500     39.085      2.818 
 10808.000     42.783      2.819 
 10808.500     43.071      2.819 
 10809.000     40.599      2.816 
 10809.500     36.809      2.810 
 10810.000     39.396      2.808 
 10810.500     56.924      2.802 
 10811.000     61.571      2.787 
 10811.500     67.315      2.782 
 10812.000     63.837      2.785 
 10812.500     50.746      2.797 
 10813.000     50.200      2.798 
 10813.500     51.530      2.794 
 10814.000     53.538      2.793 
 10814.500     54.149      2.787 
 10815.000     51.166      2.782 
 10815.500     47.063      2.780 
 10816.000     39.873      2.782 
 10816.500     28.702      2.801 
 10817.000     22.219      2.811 
 10817.500     19.224      2.830 
 10818.000     19.890      2.844 
 10818.500     20.747      2.839 
 10819.000     23.739      2.825 
 10819.500     27.949      2.820 
 10820.000     27.925      2.820 
 10820.500     26.906      2.830 
 10821.000     24.466      2.836 
 10821.500     23.093      2.832 
 10822.000     25.106      2.824 
 10822.500     26.568      2.821 
 10823.000     29.291      2.826 
 10823.500     31.899      2.830 
 10824.000     29.138      2.830 
 10824.500     24.695      2.832 
 10825.000     24.759      2.832 
 10825.500     25.343      2.835 
 10826.000     28.150      2.838 
 10826.500     33.573      2.846 
 10827.000     36.439      2.847 
 10827.500     38.929      2.835 
 10828.000     38.846      2.827 
 10828.500     39.820      2.813 
 10829.000     41.373      2.813 
 10829.500     44.611      2.813 
 10830.000     45.994      2.809 
 10830.500     47.826      2.799 
 10831.000     54.722      2.789 
 10831.500     64.039      2.787 
 10832.000     88.743      2.779 
 10832.500     86.906      2.761 
 10833.000     84.755      2.767 
 10833.500     53.316      2.779 
 10834.000     40.605      2.804 
 10834.500     26.150      2.814 
 10835.000     23.764      2.821 
 10835.500     25.763      2.810 
 10836.000     31.918      2.813 
 10836.500     43.531      2.819 
 10837.000     50.890      2.818 
 10837.500     53.810      2.807 
 10838.000     52.405      2.804 
 10838.500     47.793      2.808 
 10839.000     40.157      2.820 
 10839.500     32.474      2.826 
 10840.000     27.848      2.825 
 10840.500     23.150      2.825 
 10841.000     28.651      2.822 
 10841.500     37.299      2.817 
 10842.000     48.836      2.802 
 10842.500     66.345      2.774 
 10843.000     71.231      2.759 
 10843.500     69.491      2.757 
 10844.000     64.848      2.764 
 10844.500     47.710      2.785 
 10845.000     40.553      2.800 
 10845.500     33.843      2.801 
 10846.000     31.169      2.799 
 10846.500     28.916      2.807 
 10847.000     28.079      2.812 
 10847.500     29.239      2.811 
 10848.000     29.555      2.800 
 10848.500     30.075      2.791 
 10849.000     29.619      2.783 
 10849.500     28.479      2.801 
 10850.000     28.769      2.807 
 10850.500     28.443      2.814 
 10851.000     29.877      2.814 
 10851.500     30.742      2.806 
 10852.000     31.529      2.806 
 10852.500     30.270      2.807 
 10853.000     28.127      2.810 
 10853.500     27.874      2.816 
 10854.000     30.196      2.819 
 10854.500     32.534      2.820 
 10855.000     32.336      2.823 
 10855.500     29.887      2.828 
 10856.000     25.831      2.841 
 10856.500     22.202      2.845 
 10857.000     20.908      2.837 
 10857.500     21.198      2.821 
 10858.000     22.338      2.813 
 10858.500     21.594      2.819 
 10859.000     23.089      2.827 
 10859.500     22.125      2.820 
 10860.000     24.006      2.811 
 10860.500     29.681      2.806 
 10861.000     32.709      2.808 
 10861.500     35.004      2.823 
 10862.000     35.215      2.827 
 10862.500     34.741      2.817 
 10863.000     39.242      2.809 
 10863.500     42.124      2.813 
 10864.000     50.592      2.821 
 10864.500     54.605      2.828 
 10865.000     53.819      2.832 
 10865.500     50.604      2.834 
 10866.000     45.217      2.828 
 10866.500     40.319      2.819 
 10867.000     37.837      2.814 
 10867.500     36.412      2.815 
 10868.000     36.466      2.812 
 10868.500     36.204      2.814 
 10869.000     34.091      2.817 
 10869.500     32.062      2.814 
 10870.000     31.021      2.814 
 10870.500     28.729      2.809 
 10871.000     27.996      2.808 
 10871.500     25.755      2.815 
 10872.000     23.114      2.821 
 10872.500     22.513      2.834 
 10873.000     21.860      2.833 
 10873.500     23.753      2.821 
 10874.000     27.069      2.808 
 10874.500     38.976      2.795 
 10875.000     50.992      2.799 
 10875.500     54.770      2.803 
 10876.000     52.767      2.819 
 10876.500     49.622      2.836 
 10877.000     45.932      2.829 
 10877.500     43.351      2.809 
 10878.000     39.833      2.798 
 10878.500     36.458      2.807 
 10879.000     32.967      2.821 
 10879.500     32.758      2.818 
 10880.000     30.946      2.816 
 10880.500     29.194      2.821 
 10881.000     27.912      2.841 
 10881.500     29.948      2.858 
 10882.000     33.617      2.863 
 10882.500     37.658      2.851 
 10883.000     40.031      2.838 
 10883.500     39.767      2.830 
 10884.000     37.382      2.825 
 10884.500     35.519      2.811 
 10885.000     34.951      2.805 
 10885.500     36.308      2.802 
 10886.000     36.526      2.800 
 10886.500     33.671      2.804 
 10887.000     30.727      2.804 
 10887.500     26.500      2.808 
 10888.000     27.201      2.811 
 10888.500     28.895      2.818 
 10889.000     39.086      2.817 
 10889.500     41.088      2.819 
 10890.000     53.082      2.815 
 10890.500     60.577      2.807 
 10891.000     63.352      2.788 
 10891.500     62.735      2.775 
 10892.000     54.185      2.774 
 10892.500     49.379      2.784 
 10893.000     42.063      2.802 
 10893.500     38.999      2.813 
 10894.000     38.642      2.820 
 10894.500     33.621      2.824 
 10895.000     34.978      2.822 
 10895.500     35.174      2.821 
 10896.000     38.650      2.822 
 10896.500     38.163      2.816 
 10897.000     33.570      2.811 
 10897.500     28.653      2.805 
 10898.000     27.096      2.806 
 10898.500     25.933      2.811 
 10899.000     28.375      2.821 
 10899.500     37.916      2.832 
 10900.000     58.565      2.833 
 10900.500     56.258      2.831 
 10901.000     55.942      2.825 
 10901.500     54.516      2.820 
 10902.000     42.304      2.818 
 10902.500     36.777      2.817 
 10903.000     27.159      2.816 
 10903.500     24.968      2.808 
 10904.000     20.861      2.801 
 10904.500     20.652      2.795 
 10905.000     21.415      2.797 
 10905.500     21.735      2.802 
 10906.000     22.625      2.824 
 10906.500     27.006      2.826 
 10907.000     29.895      2.827 
 10907.500     33.532      2.824 
 10908.000     35.031      2.828 
 10908.500     31.123      2.845 
 10909.000     27.130      2.851 
 10909.500     23.225      2.840 
 10910.000     23.220      2.832 
 10910.500     25.487      2.826 
 10911.000     26.410      2.824 
 10911.500     25.594      2.811 
 10912.000     23.050      2.802 
 10912.500     20.788      2.790 
 10913.000     20.802      2.818 
 10913.500     20.924      2.830 
 10914.000     21.680      2.847 
 10914.500     21.453      2.806 
 10915.000     22.233      2.799 
 10915.500     22.285      2.798 
 10916.000     21.395      2.803 
 10916.500     19.100      2.795 
 10917.000     17.615      2.785 
 10917.500     16.541      2.794 
 10918.000     16.140      2.808 
 10918.500     16.921      2.819 
 10919.000     18.622      2.820 
 10919.500     21.323      2.822 
 10920.000     26.908      2.823 
 10920.500     45.327      2.813 
 10921.000     59.361      2.806 
 10921.500     69.377      2.785 
