~Version Information Block
 VERS.                2.00:     CWLS LOG ASCII STANDARD - VERSION 2.000000
 WRAP.                  NO:     One Line Per Depth Step
#
~Well Information Block
#MNEM.UNIT                     Data                         Information
#----------   ------------------------------------------   ----------------
 STRT.FT                                     5300.0000:
 STOP.FT                                    10450.0000:
 STEP.FT                                        0.5000:
 NULL.                                       -999.2500:
 COMP.                                                :     COMPANY
 WELL.                                                :     WELL
 FLD .                                                :     FIELD
 CNTY.                                                :     COUNTY
 STAT.                                                :     STATE
 CTRY.                                                :     COUNTRY
 SRVC.                                                :     SERVICE COMPANY
 DATE.                                                :     DATE
 API .                                                :     API NUMBER
 UWI .                                                :     UWI NUMBER
#
~Curve Information Block
#MNEM.UNIT       API CODE      Curve Description
#----------    -------------   -------------------
 DEPT.FT                   :   Depth in Feet
 GR  .GAPI                 :   Gamma Ray
 RHOB.G/C3                 :   Bulk Density
#
~A  DEPTH         GR       RHOB  
# ...
 10374.000     14.775      2.839 
 10374.500     16.156      2.836 
 10375.000     16.760      2.836 
 10375.500     17.757      2.834 
 10376.000     18.070      2.828 
 10376.500     18.420      2.826 
 10377.000     19.042      2.823 
 10377.500     19.015      2.821 
 10378.000     17.831      2.831 
 10378.500     15.306      2.843 
 10379.000     14.507      2.851 
 10379.500     16.128      2.846 
 10380.000     17.251      2.838 
 10380.500     17.974      2.823 
 10381.000     17.094      2.822 
 10381.500     16.950      2.823 
 10382.000     17.153      2.823 
 10382.500     20.251      2.819 
 10383.000     21.314      2.816 
 10383.500     24.031      2.816 
 10384.000     26.594      2.818 
 10384.500     27.065      2.819 
 10385.000     24.803      2.813 
 10385.500     20.730      2.810 
 10386.000     19.233      2.813 
 10386.500     16.226      2.819 
 10387.000     16.281      2.824 
 10387.500     20.728      2.823 
 10388.000     24.377      2.821 
 10388.500     35.879      2.813 
 10389.000     42.574      2.807 
 10389.500     46.355      2.796 
 10390.000     44.577      2.807 
 10390.500     29.753      2.827 
 10391.000     22.344      2.843 
 10391.500     18.576      2.857 
 10392.000     15.663      2.857 
 10392.500     16.638      2.851 
 10393.000     17.027      2.850 
 10393.500     18.815      2.849 
 10394.000     20.535      2.855 
 10394.500     22.860      2.856 
 10395.000     27.631      2.841 
 10395.500     31.531      2.830 
 10396.000     35.000      2.807 
 10396.500     35.450      2.817 
 10397.000     35.288      2.823 
 10397.500     37.945      2.820 
 10398.000     42.439      2.806 
 10398.500     43.524      2.793 
 10399.000     39.446      2.800 
 10399.500     29.695      2.813 
 10400.000     26.372      2.865 
 10400.500     20.518      2.877 
 10401.000     17.749      2.879 
 10401.500     17.884      2.867 
 10402.000     16.218      2.852 
 10402.500     16.178      2.836 
 10403.000     14.770      2.833 
 10403.500     14.565      2.834 
 10404.000     15.245      2.832 
 10404.500     18.899      2.822 
 10405.000     21.620      2.814 
 10405.500     28.737      2.798 
 10406.000     35.133      2.787 
 10406.500     39.544      2.769 
 10407.000     36.672      2.767 
 10407.500     28.878      2.785 
 10408.000     22.810      2.798 
 10408.500     15.986      2.816 
 10409.000     14.150      2.813 
 10409.500     12.908      2.813 
 10410.000     13.087      2.813 
 10410.500     13.648      2.826 
 10411.000     19.152      2.838 
 10411.500     22.237      2.839 
 10412.000     29.239      2.826 
 10412.500     33.870      2.810 
 10413.000     34.986      2.808 
 10413.500     28.181      2.817 
 10414.000     24.623      2.837 
 10414.500     20.797      2.855 
 10415.000     19.419      2.864 
 10415.500     19.285      2.860 
 10416.000     20.384      2.858 
 10416.500     20.149      2.857 
 10417.000     20.843      2.855 
 10417.500     21.040      2.844 
 10418.000     21.068      2.831 
 10418.500     20.887      2.817 
 10419.000     19.298      2.818 
 10419.500     17.139      2.826 
 10420.000     16.262      2.832 
 10420.500     16.079      2.842 
 10421.000     17.797      2.845 
 10421.500     20.243      2.853 
 10422.000     21.384      2.852 
 10422.500     26.855      2.846 
 10423.000     29.747      2.836 
 10423.500     29.546      2.826 
 10424.000     27.094      2.820 
 10424.500     22.851      2.823 
 10425.000     20.822      2.830 
 10425.500     19.535      2.841 
 10426.000     19.002      2.846 
 10426.500     17.750      2.870 
 10427.000     19.786      2.888 
 10427.500     25.404      2.900 
 10428.000     30.992      2.894 
 10428.500     31.237      2.866 
 10429.000     29.403      2.854 
 10429.500     24.689      2.849 
 10430.000     21.863      2.865 
 10430.500     18.833      2.890 
 10431.000     15.669      2.885 
 10431.500     14.674      2.876 
 10432.000     14.625      2.858 
 10432.500     13.867      2.848 
 10433.000     13.559      2.845 
 10433.500     13.207      2.850 
 10434.000     13.019      2.849 
 10434.500     13.617      2.847 
 10435.000     15.647      2.844 
 10435.500     18.723      2.841 
 10436.000     21.404      2.840 
 10436.500     23.420      2.823 
 10437.000     24.561      2.816 
 10437.500     25.410      2.813 
 10438.000     23.320      2.819 
 10438.500     18.178      2.826 
 10439.000     16.282      2.844 
 10439.500     14.722      2.849 
 10440.000     14.732      2.863 
 10440.500     14.636      2.855 
 10441.000     14.486      2.844 
 10441.500     13.824      2.848 
 10442.000     13.908      2.849 
 10442.500     15.435      2.854 
 10443.000     17.279      2.855 
 10443.500     19.245      2.841 
 10444.000     23.734      2.822 
 10444.500     29.146      2.818 
 10445.000     38.679      2.816 
 10445.500     48.123      2.805 
 10446.000     58.320      2.796 
 10446.500     63.662      2.782 
 10447.000     63.633      2.782 
 10447.500     60.985      2.787 
 10448.000     56.596      2.787 
 10448.500     45.236      2.791 
 10449.000     42.531      2.792 
 10449.500     36.269      2.791 
 10450.000     32.561      2.822 
