~Version Information Block
 VERS.                2.00:     CWLS LOG ASCII STANDARD - VERSION 2.000000
 WRAP.                  NO:     One Line Per Depth Step
#
~Well Information Block
#MNEM.UNIT                     Data                         Information
#----------   ------------------------------------------   ----------------
 STRT.FT                                     5300.0000:
 STOP.FT                                    10450.0000:
 STEP.FT                                        0.5000:
 NULL.                                       -999.2500:
 COMP.                                                :     COMPANY
 WELL.                                                :     WELL
 FLD .                                                :     FIELD
 CNTY.                                                :     COUNTY
 STAT.                                                :     STATE
 CTRY.                                                :     COUNTRY
 SRVC.                                                :     SERVICE COMPANY
 DATE.                                                :     DATE
 API .                                                :     API NUMBER
 UWI .                                                :     UWI NUMBER
#
~Curve Information Block
#MNEM.UNIT       API CODE      Curve Description
#----------    -------------   -------------------
 DEPT.FT                   :   Depth in Feet
 GR  .GAPI                 :   Gamma Ray
 RHOB.G/C3                 :   Bulk Density
#
~A  DEPTH         GR       RHOB  
# ...
  7660.000     87.961      2.770 
  7660.500     73.409      2.744 
  7661.000     59.087      2.743 
  7661.500     44.366      2.765 
  7662.000     37.831      2.782 
  7662.500     28.227      2.794 
  7663.000     23.566      2.800 
  7663.500     21.947      2.808 
  7664.000     23.654      2.810 
  7664.500     36.756      2.796 
  7665.000     48.781      2.779 
  7665.500     59.743      2.757 
  7666.000     65.965      2.753 
  7666.500     42.857      2.752 
  7667.000     31.725      2.785 
  7667.500     20.042      2.795 
  7668.000     19.311      2.795 
  7668.500     18.080      2.795 
  7669.000     19.942      2.797 
  7669.500     20.155      2.802 
  7670.000     20.918      2.800 
  7670.500     24.924      2.796 
  7671.000     30.254      2.794 
  7671.500     36.177      2.794 
  7672.000     42.878      2.794 
  7672.500     47.685      2.787 
  7673.000     46.434      2.775 
  7673.500     44.334      2.775 
  7674.000     45.274      2.778 
  7674.500     50.727      2.782 
  7675.000     53.083      2.781 
  7675.500     59.779      2.770 
  7676.000     64.663      2.758 
  7676.500     70.255      2.732 
  7677.000     58.809      2.738 
  7677.500     42.901      2.751 
  7678.000     25.886      2.777 
  7678.500     16.835      2.806 
  7679.000     16.301      2.806 
  7679.500     17.222      2.797 
  7680.000     20.598      2.793 
  7680.500     24.250      2.791 
  7681.000     28.196      2.794 
  7681.500     33.933      2.800 
  7682.000     37.237      2.797 
  7682.500     38.391      2.793 
  7683.000     38.841      2.793 
  7683.500     31.367      2.798 
  7684.000     25.733      2.800 
  7684.500     25.486      2.794 
  7685.000     27.080      2.786 
  7685.500     39.611      2.782 
  7686.000     60.967      2.778 
  7686.500     71.169      2.774 
  7687.000     60.144      2.775 
  7687.500     43.619      2.775 
  7688.000     31.573      2.788 
  7688.500     21.201      2.791 
  7689.000     20.147      2.802 
  7689.500     19.938      2.804 
  7690.000     26.291      2.809 
  7690.500     39.564      2.805 
  7691.000     61.078      2.799 
  7691.500     64.496      2.778 
  7692.000     67.896      2.767 
  7692.500     48.169      2.777 
  7693.000     41.509      2.794 
  7693.500     34.580      2.798 
  7694.000     30.791      2.801 
  7694.500     25.940      2.797 
  7695.000     25.605      2.793 
  7695.500     24.804      2.789 
  7696.000     24.966      2.782 
  7696.500     25.179      2.773 
  7697.000     25.765      2.768 
  7697.500     31.039      2.769 
  7698.000     34.017      2.774 
  7698.500     45.028      2.790 
  7699.000     57.802      2.784 
  7699.500     61.215      2.769 
  7700.000     58.128      2.760 
  7700.500     52.931      2.746 
  7701.000     51.005      2.747 
  7701.500     52.038      2.759 
  7702.000     53.753      2.773 
  7702.500     57.996      2.769 
  7703.000     60.450      2.749 
  7703.500     60.314      2.747 
  7704.000     62.411      2.746 
  7704.500     44.445      2.749 
  7705.000     35.772      2.776 
  7705.500     23.451      2.802 
  7706.000     18.670      2.826 
  7706.500     13.994      2.831 
  7707.000     13.916      2.831 
  7707.500     14.688      2.816 
  7708.000     17.750      2.800 
  7708.500     26.942      2.789 
  7709.000     35.639      2.781 
  7709.500     36.256      2.785 
  7710.000     30.767      2.792 
  7710.500     24.919      2.816 
  7711.000     18.953      2.824 
  7711.500     17.211      2.828 
  7712.000     18.006      2.822 
  7712.500     19.622      2.828 
  7713.000     21.171      2.832 
  7713.500     21.283      2.834 
  7714.000     21.885      2.830 
  7714.500     21.469      2.824 
  7715.000     20.064      2.817 
  7715.500     18.520      2.823 
  7716.000     15.621      2.829 
  7716.500     11.807      2.840 
  7717.000     11.578      2.843 
  7717.500     11.325      2.844 
  7718.000     12.155      2.838 
  7718.500     12.283      2.835 
  7719.000     12.182      2.842 
  7719.500     12.987      2.862 
  7720.000     14.337      2.853 
  7720.500     17.742      2.836 
  7721.000     23.136      2.823 
  7721.500     33.554      2.805 
  7722.000     41.400      2.787 
  7722.500     55.774      2.770 
  7723.000     51.824      2.763 
  7723.500     41.287      2.768 
  7724.000     31.789      2.789 
  7724.500     20.761      2.803 
  7725.000     15.483      2.830 
  7725.500     12.148      2.844 
  7726.000     12.136      2.854 
  7726.500     12.048      2.850 
  7727.000     12.227      2.838 
  7727.500     12.338      2.828 
  7728.000     12.444      2.816 
  7728.500     12.927      2.810 
  7729.000     12.741      2.815 
  7729.500     12.130      2.824 
  7730.000     12.853      2.827 
  7730.500     12.166      2.828 
  7731.000     12.310      2.830 
  7731.500     12.312      2.831 
  7732.000     12.974      2.841 
  7732.500     16.855      2.844 
  7733.000     21.439      2.838 
  7733.500     28.597      2.834 
  7734.000     33.344      2.826 
  7734.500     34.351      2.819 
  7735.000     31.728      2.800 
  7735.500     29.835      2.803 
  7736.000     28.465      2.801 
  7736.500     32.515      2.813 
  7737.000     35.344      2.815 
  7737.500     37.014      2.812 
  7738.000     36.702      2.809 
  7738.500     39.801      2.810 
  7739.000     40.138      2.815 
  7739.500     39.068      2.819 
  7740.000     35.607      2.820 
  7740.500     28.416      2.818 
  7741.000     25.524      2.816 
  7741.500     24.990      2.817 
  7742.000     26.625      2.820 
  7742.500     28.008      2.814 
  7743.000     27.259      2.801 
  7743.500     26.469      2.794 
  7744.000     27.262      2.784 
  7744.500     29.728      2.791 
  7745.000     32.265      2.802 
  7745.500     33.354      2.813 
  7746.000     34.730      2.816 
  7746.500     35.941      2.818 
  7747.000     36.433      2.815 
  7747.500     35.765      2.807 
  7748.000     34.459      2.800 
  7748.500     32.142      2.794 
  7749.000     31.424      2.795 
  7749.500     28.976      2.793 
  7750.000     26.893      2.785 
  7750.500     25.535      2.781 
  7751.000     24.871      2.793 
  7751.500     24.387      2.796 
  7752.000     23.039      2.800 
  7752.500     20.781      2.800 
  7753.000     20.195      2.798 
  7753.500     20.294      2.805 
  7754.000     21.809      2.810 
  7754.500     24.130      2.813 
  7755.000     26.679      2.813 
  7755.500     30.518      2.814 
  7756.000     34.781      2.825 
  7756.500     41.944      2.835 
  7757.000     42.575      2.830 
  7757.500     39.419      2.813 
  7758.000     34.474      2.804 
  7758.500     23.896      2.802 
  7759.000     19.461      2.804 
  7759.500     19.247      2.810 
  7760.000     19.768      2.819 
  7760.500     22.953      2.828 
  7761.000     24.024      2.833 
  7761.500     23.404      2.826 
  7762.000     23.034      2.822 
  7762.500     25.156      2.822 
  7763.000     28.640      2.822 
  7763.500     31.871      2.824 
  7764.000     31.867      2.824 
  7764.500     31.620      2.823 
  7765.000     30.576      2.818 
  7765.500     29.897      2.810 
  7766.000     32.038      2.812 
  7766.500     36.057      2.812 
  7767.000     36.951      2.805 
  7767.500     35.000      2.802 
  7768.000     30.137      2.804 
  7768.500     27.153      2.821 
  7769.000     25.687      2.824 
  7769.500     32.020      2.826 
  7770.000     38.239      2.829 
  7770.500     42.433      2.806 
  7771.000     42.661      2.776 
  7771.500     36.249      2.766 
  7772.000     37.994      2.763 
  7772.500     45.738      2.763 
  7773.000     53.559      2.763 
  7773.500     63.416      2.760 
  7774.000     68.392      2.759 
  7774.500     66.445      2.761 
  7775.000     57.872      2.773 
  7775.500     48.796      2.786 
  7776.000     47.950      2.792 
  7776.500     43.915      2.785 
  7777.000     39.781      2.782 
  7777.500     30.115      2.785 
