~Version Information Block
 VERS.                2.00:     CWLS LOG ASCII STANDARD - VERSION 2.000000
 WRAP.                  NO:     One Line Per Depth Step
#
~Well Information Block
#MNEM.UNIT                     Data                         Information
#----------   ------------------------------------------   ----------------
 STRT.FT                                    10450.0000:
 STOP.FT                                    16050.0000:
 STEP.FT                                        0.5000:
 NULL.                                       -999.2500:
 COMP.                                                :     COMPANY
 WELL.                                                :     WELL
 FLD .                                                :     FIELD
 CNTY.                                                :     COUNTY
 STAT.                                                :     STATE
 CTRY.                                                :     COUNTRY
 SRVC.                                                :     SERVICE COMPANY
 DATE.                                                :     DATE
 API .                                                :     API NUMBER
 UWI .                                                :     UWI NUMBER
#
~Curve Information Block
#MNEM.UNIT       API CODE      Curve Description
#----------    -------------   -------------------
 DEPT.FT                   :   Depth in Feet
 GR  .GAPI                 :   Gamma Ray
 RHOB.G/C3                 :   Bulk Density
#
~A  DEPTH         GR       RHOB  
# ...
 15170.000     15.203      2.825 
 15170.500     14.805      2.831 
 15171.000     14.414      2.838 
 15171.500     15.108      2.843 
 15172.000     16.327      2.849 
 15172.500     20.330      2.840 
 15173.000     20.872      2.833 
 15173.500     23.369      2.820 
 15174.000     24.753      2.819 
 15174.500     28.442      2.824 
 15175.000     31.840      2.827 
 15175.500     36.193      2.828 
 15176.000     43.670      2.822 
 15176.500     52.299      2.811 
 15177.000     59.963      2.802 
 15177.500     75.099      2.780 
 15178.000     88.850      2.755 
 15178.500     92.267      2.769 
 15179.000     89.221      2.800 
 15179.500     79.138      2.808 
 15180.000     69.563      2.808 
 15180.500     54.372      2.804 
 15181.000     36.706      2.801 
 15181.500     30.724      2.807 
 15182.000     26.793      2.817 
 15182.500     24.101      2.833 
 15183.000     23.922      2.842 
 15183.500     23.728      2.846 
 15184.000     25.834      2.845 
 15184.500     30.385      2.840 
 15185.000     32.597      2.827 
 15185.500     33.358      2.818 
 15186.000     31.510      2.816 
 15186.500     27.754      2.835 
 15187.000     25.863      2.853 
 15187.500     26.356      2.853 
 15188.000     26.268      2.846 
 15188.500     26.358      2.824 
 15189.000     25.139      2.818 
 15189.500     23.934      2.810 
 15190.000     22.039      2.803 
 15190.500     19.225      2.782 
 15191.000     18.324      2.782 
 15191.500     16.634      2.785 
 15192.000     15.205      2.795 
 15192.500     14.363      2.803 
 15193.000     15.584      2.811 
 15193.500     18.013      2.821 
 15194.000     18.844      2.830 
 15194.500     21.186      2.828 
 15195.000     23.101      2.827 
 15195.500     24.376      2.828 
 15196.000     25.624      2.826 
 15196.500     26.979      2.815 
 15197.000     28.269      2.805 
 15197.500     29.571      2.806 
 15198.000     30.881      2.816 
 15198.500     32.183      2.844 
 15199.000     33.488      2.847 
 15199.500     34.793      2.849 
 15200.000     36.098      2.839 
 15200.500     37.403      2.820 
 15201.000     38.708      2.814 
 15201.500     40.013      2.825 
 15202.000     41.318      2.837 
 15202.500     42.625      2.841 
 15203.000     43.937      2.835 
 15203.500     45.254      2.828 
 15204.000     46.542      2.816 
 15204.500     47.891      2.800 
 15205.000     49.183      2.804 
 15205.500     50.373      2.808 
 15206.000     51.965      2.813 
 15206.500     48.929      2.827 
 15207.000     43.377      2.834 
 15207.500     37.596      2.836 
 15208.000     34.178      2.836 
 15208.500     31.134      2.839 
 15209.000     30.950      2.841 
 15209.500     30.997      2.842 
 15210.000     30.886      2.837 
 15210.500     31.289      2.829 
 15211.000     31.777      2.821 
 15211.500     36.016      2.820 
 15212.000     36.669      2.821 
 15212.500     33.033      2.836 
 15213.000     27.306      2.843 
 15213.500     25.518      2.852 
 15214.000     22.797      2.853 
 15214.500     19.317      2.854 
 15215.000     18.254      2.854 
 15215.500     17.478      2.857 
 15216.000     17.849      2.854 
 15216.500     18.639      2.846 
 15217.000     19.068      2.835 
 15217.500     18.679      2.837 
 15218.000     20.034      2.846 
 15218.500     21.459      2.858 
 15219.000     22.913      2.862 
 15219.500     23.262      2.861 
 15220.000     24.332      2.859 
 15220.500     23.336      2.857 
 15221.000     21.659      2.856 
 15221.500     19.421      2.846 
 15222.000     20.097      2.835 
 15222.500     19.215      2.826 
 15223.000     19.419      2.827 
 15223.500     18.625      2.828 
 15224.000     20.774      2.839 
 15224.500     20.347      2.849 
 15225.000     19.710      2.848 
 15225.500     18.528      2.851 
 15226.000     18.465      2.852 
 15226.500     17.692      2.849 
 15227.000     16.744      2.834 
 15227.500     17.396      2.824 
 15228.000     18.266      2.820 
 15228.500     16.740      2.816 
 15229.000     15.941      2.814 
 15229.500     14.786      2.817 
 15230.000     14.948      2.825 
 15230.500     15.294      2.848 
 15231.000     15.202      2.865 
 15231.500     14.761      2.862 
 15232.000     14.823      2.856 
 15232.500     13.836      2.848 
 15233.000     13.719      2.851 
 15233.500     13.686      2.854 
 15234.000     13.822      2.862 
 15234.500     13.069      2.840 
 15235.000     12.918      2.817 
 15235.500     13.099      2.800 
 15236.000     13.934      2.806 
 15236.500     14.435      2.826 
 15237.000     13.721      2.834 
 15237.500     15.009      2.835 
 15238.000     15.340      2.825 
 15238.500     15.251      2.812 
 15239.000     15.166      2.819 
 15239.500     14.506      2.826 
 15240.000     13.747      2.829 
 15240.500     13.515      2.834 
 15241.000     13.636      2.846 
 15241.500     14.546      2.854 
 15242.000     15.482      2.863 
 15242.500     16.221      2.855 
 15243.000     15.441      2.856 
 15243.500     14.243      2.859 
 15244.000     13.589      2.861 
 15244.500     12.234      2.856 
 15245.000     12.297      2.842 
 15245.500     13.168      2.827 
 15246.000     13.915      2.826 
 15246.500     14.403      2.842 
 15247.000     13.607      2.843 
 15247.500     13.738      2.838 
 15248.000     13.623      2.838 
 15248.500     14.043      2.845 
 15249.000     14.990      2.855 
 15249.500     17.534      2.859 
 15250.000     22.881      2.859 
 15250.500     28.686      2.859 
 15251.000     38.968      2.848 
 15251.500     50.914      2.839 
 15252.000     66.802      2.816 
 15252.500     79.353      2.807 
 15253.000     85.915      2.797 
 15253.500     84.213      2.790 
 15254.000     81.099      2.783 
 15254.500     65.063      2.783 
 15255.000     47.378      2.792 
 15255.500     27.255      2.806 
 15256.000     24.171      2.814 
 15256.500     17.565      2.820 
 15257.000     16.427      2.820 
 15257.500     16.018      2.826 
 15258.000     15.836      2.827 
 15258.500     15.497      2.829 
 15259.000     15.354      2.831 
 15259.500     16.858      2.833 
 15260.000     18.251      2.847 
 15260.500     19.943      2.848 
 15261.000     20.676      2.850 
 15261.500     25.119      2.844 
 15262.000     28.681      2.837 
 15262.500     34.606      2.832 
 15263.000     42.818      2.838 
 15263.500     52.923      2.843 
 15264.000     66.932      2.854 
 15264.500     76.640      2.836 
 15265.000     81.803      2.805 
 15265.500     80.054      2.774 
 15266.000     77.256      2.779 
 15266.500     57.555      2.803 
 15267.000     39.608      2.822 
 15267.500     32.339      2.842 
 15268.000     24.807      2.836 
 15268.500     19.504      2.830 
 15269.000     19.030      2.831 
 15269.500     16.628      2.838 
 15270.000     16.353      2.844 
 15270.500     18.589      2.852 
 15271.000     19.982      2.857 
 15271.500     21.525      2.857 
 15272.000     23.637      2.845 
 15272.500     24.436      2.842 
 15273.000     25.362      2.840 
 15273.500     25.100      2.840 
 15274.000     24.351      2.838 
 15274.500     23.252      2.839 
 15275.000     23.426      2.846 
 15275.500     22.944      2.845 
 15276.000     26.700      2.840 
 15276.500     50.227      2.832 
 15277.000     65.150      2.814 
 15277.500     92.862      2.798 
 15278.000     90.767      2.762 
 15278.500     83.982      2.745 
 15279.000     76.597      2.774 
 15279.500     63.770      2.818 
 15280.000     51.881      2.867 
 15280.500     37.891      2.870 
 15281.000     39.499      2.855 
 15281.500     38.840      2.842 
 15282.000     38.049      2.820 
 15282.500     34.437      2.814 
 15283.000     29.174      2.812 
 15283.500     24.961      2.815 
 15284.000     22.173      2.834 
 15284.500     21.736      2.843 
 15285.000     22.858      2.846 
 15285.500     26.786      2.834 
 15286.000     30.214      2.817 
 15286.500     32.202      2.785 
 15287.000     28.316      2.782 
 15287.500     21.311      2.799 
