~Version Information Block
 VERS.                2.00:     CWLS LOG ASCII STANDARD - VERSION 2.000000
 WRAP.                  NO:     One Line Per Depth Step
#
~Well Information Block
#MNEM.UNIT                     Data                         Information
#----------   ------------------------------------------   ----------------
 STRT.FT                                     5300.0000:
 STOP.FT                                    10450.0000:
 STEP.FT                                        0.5000:
 NULL.                                       -999.2500:
 COMP.                                                :     COMPANY
 WELL.                                                :     WELL
 FLD .                                                :     FIELD
 CNTY.                                                :     COUNTY
 STAT.                                                :     STATE
 CTRY.                                                :     COUNTRY
 SRVC.                                                :     SERVICE COMPANY
 DATE.                                                :     DATE
 API .                                                :     API NUMBER
 UWI .                                                :     UWI NUMBER
#
~Curve Information Block
#MNEM.UNIT       API CODE      Curve Description
#----------    -------------   -------------------
 DEPT.FT                   :   Depth in Feet
 GR  .GAPI                 :   Gamma Ray
 RHOB.G/C3                 :   Bulk Density
#
~A  DEPTH         GR       RHOB  
# ...
  6362.000     11.612      2.699 
  6362.500     11.471      2.677 
  6363.000     11.457      2.662 
  6363.500     11.657      2.658 
  6364.000     11.420      2.656 
  6364.500     17.276      2.667 
  6365.000     22.595      2.678 
  6365.500     23.067      2.690 
  6366.000     20.592      2.693 
  6366.500     16.246      2.660 
  6367.000     13.836      2.642 
  6367.500     12.532      2.634 
  6368.000     11.596      2.673 
  6368.500     11.382      2.748 
  6369.000     10.582      2.773 
  6369.500     10.576      2.774 
  6370.000     10.696      2.761 
  6370.500     12.949      2.683 
  6371.000     14.139      2.649 
  6371.500     17.219      2.594 
  6372.000     19.245      2.583 
  6372.500     19.392      2.634 
  6373.000     19.421      2.707 
  6373.500     16.521      2.775 
  6374.000     13.884      2.787 
  6374.500     14.122      2.748 
  6375.000     15.213      2.709 
  6375.500     18.854      2.679 
  6376.000     20.142      2.645 
  6376.500     21.825      2.622 
  6377.000     21.641      2.619 
  6377.500     20.943      2.672 
  6378.000     21.059      2.736 
  6378.500     21.263      2.750 
  6379.000     21.215      2.737 
  6379.500     21.120      2.716 
  6380.000     20.992      2.706 
  6380.500     23.019      2.772 
  6381.000     23.159      2.767 
  6381.500     23.271      2.799 
  6382.000     22.437      2.780 
  6382.500     19.480      2.656 
  6383.000     17.926      2.629 
  6383.500     16.438      2.532 
  6384.000     18.020      2.443 
  6384.500     22.648      2.451 
  6385.000     25.000      2.430 
  6385.500     26.414      2.566 
  6386.000     25.297      2.726 
  6386.500     23.724      2.716 
  6387.000     21.943      2.826 
  6387.500     20.187      2.840 
  6388.000     18.437      2.876 
  6388.500     16.696      2.852 
  6389.000     15.504      2.858 
  6389.500     14.435      2.743 
  6390.000     14.342      2.725 
  6390.500     13.682      2.700 
  6391.000     12.693      2.704 
  6391.500     11.378      2.628 
  6392.000     11.862      2.619 
  6392.500     13.706      2.602 
  6393.000     17.570      2.607 
  6393.500     19.785      2.639 
  6394.000     19.816      2.672 
  6394.500     18.595      2.688 
  6395.000     17.787      2.694 
  6395.500     16.812      2.655 
  6396.000     15.801      2.630 
  6396.500     15.638      2.592 
  6397.000     16.426      2.580 
  6397.500     17.678      2.682 
  6398.000     18.615      2.718 
  6398.500     19.660      2.751 
  6399.000     21.025      2.743 
  6399.500     22.438      2.747 
  6400.000     23.961      2.772 
  6400.500     24.838      2.724 
  6401.000     21.059      2.708 
  6401.500     19.106      2.703 
  6402.000     19.070      2.693 
  6402.500     19.421      2.725 
  6403.000     21.693      2.759 
  6403.500     21.860      2.782 
  6404.000     22.826      2.785 
  6404.500     21.976      2.760 
  6405.000     21.290      2.747 
  6405.500     20.373      2.734 
  6406.000     20.141      2.730 
  6406.500     19.257      2.731 
  6407.000     19.397      2.732 
  6407.500     16.272      2.713 
  6408.000     14.367      2.670 
  6408.500     12.056      2.665 
  6409.000     12.227      2.668 
  6409.500     13.524      2.715 
  6410.000     15.563      2.724 
  6410.500     18.430      2.715 
  6411.000     21.104      2.701 
  6411.500     25.308      2.700 
  6412.000     29.324      2.702 
  6412.500     29.300      2.772 
  6413.000     27.130      2.767 
  6413.500     23.006      2.695 
  6414.000     23.161      2.703 
  6414.500     18.921      2.628 
  6415.000     16.705      2.701 
  6415.500     15.386      2.739 
  6416.000     13.677      2.781 
  6416.500     12.788      2.671 
  6417.000     12.834      2.615 
  6417.500     13.254      2.566 
  6418.000     14.102      2.484 
  6418.500     14.830      2.476 
  6419.000     14.766      2.598 
  6419.500     15.715      2.645 
  6420.000     17.684      2.684 
  6420.500     19.761      2.710 
  6421.000     20.692      2.701 
  6421.500     23.145      2.684 
  6422.000     26.424      2.674 
  6422.500     27.023      2.690 
  6423.000     25.882      2.746 
  6423.500     22.091      2.757 
  6424.000     21.511      2.772 
  6424.500     19.116      2.759 
  6425.000     21.490      2.707 
  6425.500     22.656      2.704 
  6426.000     24.748      2.710 
  6426.500     22.503      2.724 
  6427.000     21.214      2.729 
  6427.500     20.457      2.735 
  6428.000     19.236      2.738 
  6428.500     20.207      2.752 
  6429.000     21.913      2.768 
  6429.500     23.230      2.764 
  6430.000     23.029      2.770 
  6430.500     18.471      2.686 
  6431.000     17.076      2.625 
  6431.500     15.800      2.576 
  6432.000     16.428      2.555 
  6432.500     15.834      2.589 
  6433.000     15.340      2.666 
  6433.500     15.722      2.671 
  6434.000     16.442      2.672 
  6434.500     17.473      2.677 
  6435.000     19.773      2.683 
  6435.500     20.442      2.681 
  6436.000     21.238      2.678 
  6436.500     22.547      2.752 
  6437.000     22.645      2.777 
  6437.500     22.015      2.802 
  6438.000     18.326      2.787 
  6438.500     13.646      2.727 
  6439.000     12.241      2.669 
  6439.500     14.142      2.601 
  6440.000     15.403      2.614 
  6440.500     17.095      2.668 
  6441.000     19.656      2.663 
  6441.500     22.110      2.691 
  6442.000     23.281      2.707 
  6442.500     23.538      2.747 
  6443.000     22.032      2.734 
  6443.500     20.825      2.717 
  6444.000     18.484      2.721 
  6444.500     16.430      2.715 
  6445.000     15.646      2.793 
  6445.500     15.395      2.799 
  6446.000     15.604      2.770 
  6446.500     14.339      2.581 
  6447.000     14.913      2.524 
  6447.500     15.486      2.557 
  6448.000     15.484      2.573 
  6448.500     15.443      2.634 
  6449.000     15.556      2.630 
  6449.500     14.863      2.589 
  6450.000     14.234      2.558 
  6450.500     13.438      2.573 
  6451.000     12.418      2.666 
  6451.500     12.315      2.661 
  6452.000     12.371      2.614 
  6452.500     14.216      2.619 
  6453.000     16.224      2.628 
  6453.500     16.296      2.679 
  6454.000     15.438      2.647 
  6454.500     13.948      2.528 
  6455.000     13.874      2.499 
  6455.500     16.099      2.416 
  6456.000     17.250      2.391 
  6456.500     19.100      2.590 
  6457.000     18.505      2.560 
  6457.500     18.544      2.676 
  6458.000     20.719      2.566 
  6458.500     21.763      2.544 
  6459.000     21.063      2.559 
  6459.500     19.632      2.655 
  6460.000     18.374      2.732 
  6460.500     16.951      2.745 
  6461.000     15.970      2.809 
  6461.500     13.809      2.797 
  6462.000     12.321      2.757 
  6462.500     11.310      2.620 
  6463.000     12.269      2.625 
  6463.500     13.959      2.609 
  6464.000     15.030      2.608 
  6464.500     18.154      2.678 
  6465.000     17.386      2.727 
  6465.500     14.322      2.744 
  6466.000     11.760      2.760 
  6466.500     10.873      2.767 
  6467.000     10.619      2.789 
  6467.500     11.498      2.775 
  6468.000     12.338      2.733 
  6468.500     12.847      2.698 
  6469.000     13.633      2.679 
  6469.500     15.358      2.678 
  6470.000     18.451      2.686 
  6470.500     19.195      2.721 
  6471.000     20.958      2.738 
  6471.500     21.606      2.762 
  6472.000     20.124      2.763 
  6472.500     19.552      2.782 
  6473.000     18.488      2.751 
  6473.500     19.285      2.732 
  6474.000     19.603      2.709 
  6474.500     20.471      2.673 
  6475.000     21.130      2.665 
  6475.500     20.237      2.680 
  6476.000     19.365      2.717 
  6476.500     19.292      2.724 
  6477.000     18.688      2.728 
  6477.500     19.772      2.742 
  6478.000     20.276      2.748 
  6478.500     22.305      2.780 
  6479.000     23.386      2.784 
  6479.500     24.330      2.782 
