~Version Information Block
 VERS.                2.00:     CWLS LOG ASCII STANDARD - VERSION 2.000000
 WRAP.                  NO:     One Line Per Depth Step
#
~Well Information Block
#MNEM.UNIT                     Data                         Information
#----------   ------------------------------------------   ----------------
 STRT.FT                                    10450.0000:
 STOP.FT                                    16050.0000:
 STEP.FT                                        0.5000:
 NULL.                                       -999.2500:
 COMP.                                                :     COMPANY
 WELL.                                                :     WELL
 FLD .                                                :     FIELD
 CNTY.                                                :     COUNTY
 STAT.                                                :     STATE
 CTRY.                                                :     COUNTRY
 SRVC.                                                :     SERVICE COMPANY
 DATE.                                                :     DATE
 API .                                                :     API NUMBER
 UWI .                                                :     UWI NUMBER
#
~Curve Information Block
#MNEM.UNIT       API CODE      Curve Description
#----------    -------------   -------------------
 DEPT.FT                   :   Depth in Feet
 GR  .GAPI                 :   Gamma Ray
 RHOB.G/C3                 :   Bulk Density
#
~A  DEPTH         GR       RHOB  
# ...
 12220.000    102.361      2.750 
 12220.500    107.934      2.774 
 12221.000    117.790      2.777 
 12221.500    126.867      2.758 
 12222.000    129.948      2.749 
 12222.500    130.820      2.749 
 12223.000    131.484      2.791 
 12223.500    133.168      2.807 
 12224.000    134.146      2.806 
 12224.500    137.880      2.801 
 12225.000    139.721      2.805 
 12225.500    144.196      2.807 
 12226.000    146.189      2.802 
 12226.500    146.183      2.797 
 12227.000    146.328      2.762 
 12227.500    146.500      2.743 
 12228.000    148.612      2.739 
 12228.500    151.545      2.749 
 12229.000    156.386      2.772 
 12229.500    161.065      2.791 
 12230.000    167.645      2.796 
 12230.500    172.461      2.786 
 12231.000    176.462      2.757 
 12231.500    174.000      2.742 
 12232.000    170.658      2.741 
 12232.500    152.190      2.768 
 12233.000    139.610      2.777 
 12233.500    125.933      2.777 
 12234.000    115.028      2.774 
 12234.500    101.014      2.778 
 12235.000     97.162      2.782 
 12235.500     90.880      2.786 
 12236.000     86.817      2.792 
 12236.500     73.610      2.804 
 12237.000     60.763      2.809 
 12237.500     47.001      2.818 
 12238.000     41.853      2.829 
 12238.500     33.776      2.871 
 12239.000     30.573      2.935 
 12239.500     28.995      2.939 
 12240.000     28.543      2.929 
 12240.500     26.407      2.898 
 12241.000     25.447      2.907 
 12241.500     26.354      2.964 
 12242.000     34.247      2.992 
 12242.500     36.640      2.968 
 12243.000     50.676      2.869 
 12243.500     77.848      2.819 
 12244.000    114.154      2.760 
 12244.500    126.523      2.735 
 12245.000    135.369      2.767 
 12245.500    139.398      2.763 
 12246.000    138.763      2.755 
 12246.500    148.453      2.770 
 12247.000    161.406      2.777 
 12247.500    165.312      2.768 
 12248.000    165.497      2.758 
 12248.500    165.078      2.728 
 12249.000    164.917      2.729 
 12249.500    160.041      2.732 
 12250.000    153.227      2.733 
 12250.500    143.734      2.739 
 12251.000    133.776      2.745 
 12251.500    121.449      2.755 
 12252.000    106.536      2.769 
 12252.500    101.527      2.789 
 12253.000     99.084      2.790 
 12253.500    122.090      2.786 
 12254.000    138.410      2.780 
 12254.500    161.117      2.772 
 12255.000    171.628      2.770 
 12255.500    176.359      2.773 
 12256.000    179.608      2.770 
 12256.500    177.540      2.750 
 12257.000    170.253      2.730 
 12257.500    152.845      2.720 
 12258.000    146.666      2.710 
 12258.500    147.024      2.718 
 12259.000    149.961      2.759 
 12259.500    149.533      2.761 
 12260.000    119.114      2.767 
 12260.500     91.864      2.774 
 12261.000     81.988      2.780 
 12261.500     55.020      2.797 
 12262.000     46.610      2.805 
 12262.500     36.853      2.824 
 12263.000     36.668      2.849 
 12263.500     35.957      2.873 
 12264.000     35.650      2.878 
 12264.500     35.866      2.878 
 12265.000     37.165      2.875 
 12265.500     42.173      2.874 
 12266.000     44.131      2.871 
 12266.500     57.259      2.858 
 12267.000     66.197      2.853 
 12267.500     86.063      2.851 
 12268.000    115.254      2.842 
 12268.500    138.813      2.827 
 12269.000    170.605      2.805 
 12269.500    180.144      2.790 
 12270.000    177.669      2.776 
 12270.500    170.461      2.771 
 12271.000    144.330      2.770 
 12271.500    136.496      2.785 
 12272.000    126.406      2.796 
 12272.500    132.724      2.812 
 12273.000    149.729      2.766 
 12273.500    153.400      2.753 
 12274.000    151.413      2.734 
 12274.500    133.345      2.759 
 12275.000    121.530      2.792 
 12275.500    123.042      2.819 
 12276.000    138.426      2.821 
 12276.500    150.659      2.795 
 12277.000    155.896      2.785 
 12277.500    154.166      2.757 
 12278.000    150.682      2.739 
 12278.500    141.947      2.738 
 12279.000    141.871      2.746 
 12279.500    140.803      2.746 
 12280.000    153.592      2.744 
 12280.500    166.791      2.745 
 12281.000    168.039      2.745 
 12281.500    167.453      2.753 
 12282.000    164.116      2.757 
 12282.500    161.680      2.767 
 12283.000    162.248      2.760 
 12283.500    162.862      2.753 
 12284.000    162.049      2.751 
 12284.500    158.566      2.746 
 12285.000    156.040      2.743 
 12285.500    155.161      2.748 
 12286.000    163.241      2.774 
 12286.500    170.937      2.776 
 12287.000    175.851      2.783 
 12287.500    176.912      2.790 
 12288.000    173.893      2.864 
 12288.500    169.531      2.849 
 12289.000    166.180      2.775 
 12289.500    162.270      2.711 
 12290.000    156.940      2.703 
 12290.500    150.427      2.766 
 12291.000    144.401      2.795 
 12291.500    140.348      2.801 
 12292.000    137.298      2.796 
 12292.500    130.856      2.784 
 12293.000    127.333      2.775 
 12293.500    127.085      2.767 
 12294.000    132.486      2.768 
 12294.500    156.956      2.773 
 12295.000    172.435      2.763 
 12295.500    180.860      2.745 
 12296.000    181.270      2.720 
 12296.500    176.172      2.734 
 12297.000    171.994      2.751 
 12297.500    165.659      2.787 
 12298.000    162.296      2.795 
 12298.500    157.375      2.798 
 12299.000    153.528      2.794 
 12299.500    150.522      2.794 
 12300.000    119.018      2.781 
 12300.500    123.094      2.767 
 12301.000    130.398      2.775 
 12301.500    144.148      2.783 
 12302.000    150.751      2.797 
 12302.500    159.164      2.801 
 12303.000    169.412      2.806 
 12303.500    169.734      2.801 
 12304.000    172.299      2.792 
 12304.500    167.166      2.762 
 12305.000    153.933      2.755 
 12305.500    148.772      2.752 
 12306.000    142.328      2.754 
 12306.500    138.039      2.767 
 12307.000    132.676      2.778 
 12307.500    123.086      2.786 
 12308.000    128.123      2.785 
 12308.500    141.878      2.779 
 12309.000    143.569      2.775 
 12309.500    145.745      2.775 
 12310.000    140.215      2.778 
 12310.500    119.899      2.785 
 12311.000    119.868      2.799 
 12311.500    122.368      2.802 
 12312.000    138.773      2.792 
 12312.500    151.775      2.762 
 12313.000    151.928      2.730 
 12313.500    147.488      2.703 
 12314.000    145.197      2.694 
 12314.500    141.348      2.684 
 12315.000    135.078      2.691 
 12315.500    128.405      2.704 
 12316.000    127.316      2.706 
 12316.500    133.736      2.696 
 12317.000    140.094      2.686 
 12317.500    141.719      2.686 
 12318.000    141.657      2.697 
 12318.500    137.430      2.692 
 12319.000    139.003      2.686 
 12319.500    142.611      2.681 
 12320.000    148.048      2.682 
 12320.500    155.048      2.682 
 12321.000    159.906      2.668 
 12321.500    158.816      2.652 
 12322.000    159.844      2.648 
 12322.500    159.085      2.654 
 12323.000    159.053      2.657 
 12323.500    156.248      2.661 
 12324.000    151.186      2.671 
 12324.500    141.647      2.684 
 12325.000    137.344      2.681 
 12325.500    134.519      2.674 
 12326.000    133.327      2.674 
 12326.500    136.990      2.683 
 12327.000    144.421      2.681 
 12327.500    152.103      2.679 
 12328.000    157.049      2.684 
 12328.500    156.205      2.696 
 12329.000    149.674      2.707 
 12329.500    141.453      2.712 
 12330.000    140.124      2.717 
 12330.500    146.211      2.716 
 12331.000    153.484      2.697 
 12331.500    161.886      2.675 
 12332.000    166.393      2.666 
 12332.500    167.391      2.661 
 12333.000    164.492      2.680 
 12333.500    161.242      2.693 
 12334.000    157.893      2.695 
 12334.500    151.008      2.686 
 12335.000    151.775      2.681 
 12335.500    152.889      2.676 
 12336.000    155.892      2.671 
 12336.500    150.508      2.663 
 12337.000    145.467      2.663 
 12337.500    134.234      2.668 
