~Version Information Block
 VERS.                2.00:     CWLS LOG ASCII STANDARD - VERSION 2.000000
 WRAP.                  NO:     One Line Per Depth Step
#
~Well Information Block
#MNEM.UNIT                     Data                         Information
#----------   ------------------------------------------   ----------------
 STRT.FT                                    10450.0000:
 STOP.FT                                    16050.0000:
 STEP.FT                                        0.5000:
 NULL.                                       -999.2500:
 COMP.                                                :     COMPANY
 WELL.                                                :     WELL
 FLD .                                                :     FIELD
 CNTY.                                                :     COUNTY
 STAT.                                                :     STATE
 CTRY.                                                :     COUNTRY
 SRVC.                                                :     SERVICE COMPANY
 DATE.                                                :     DATE
 API .                                                :     API NUMBER
 UWI .                                                :     UWI NUMBER
#
~Curve Information Block
#MNEM.UNIT       API CODE      Curve Description
#----------    -------------   -------------------
 DEPT.FT                   :   Depth in Feet
 GR  .GAPI                 :   Gamma Ray
 RHOB.G/C3                 :   Bulk Density
#
~A  DEPTH         GR       RHOB  
# ...
 11512.000     24.464      2.808 
 11512.500     21.847      2.817 
 11513.000     22.197      2.822 
 11513.500     26.985      2.830 
 11514.000     32.522      2.830 
 11514.500     43.008      2.814 
 11515.000     48.656      2.804 
 11515.500     52.241      2.799 
 11516.000     53.772      2.798 
 11516.500     54.307      2.787 
 11517.000     54.025      2.772 
 11517.500     53.065      2.758 
 11518.000     51.351      2.759 
 11518.500     49.912      2.756 
 11519.000     49.280      2.758 
 11519.500     47.276      2.751 
 11520.000     45.824      2.748 
 11520.500     40.919      2.754 
 11521.000     40.620      2.762 
 11521.500     38.673      2.769 
 11522.000     35.649      2.770 
 11522.500     32.677      2.759 
 11523.000     31.037      2.752 
 11523.500     31.185      2.746 
 11524.000     31.783      2.740 
 11524.500     32.146      2.739 
 11525.000     31.755      2.745 
 11525.500     28.857      2.752 
 11526.000     26.158      2.750 
 11526.500     20.156      2.751 
 11527.000     17.540      2.753 
 11527.500     14.640      2.762 
 11528.000     14.649      2.793 
 11528.500     15.868      2.858 
 11529.000     19.560      2.867 
 11529.500     24.357      2.873 
 11530.000     27.350      2.848 
 11530.500     28.350      2.822 
 11531.000     27.583      2.810 
 11531.500     26.284      2.804 
 11532.000     26.489      2.800 
 11532.500     21.671      2.811 
 11533.000     17.617      2.822 
 11533.500     16.853      2.835 
 11534.000     15.762      2.835 
 11534.500     15.322      2.829 
 11535.000     15.383      2.828 
 11535.500     18.252      2.833 
 11536.000     26.592      2.844 
 11536.500     36.124      2.847 
 11537.000     41.080      2.839 
 11537.500     44.366      2.823 
 11538.000     45.521      2.810 
 11538.500     42.845      2.798 
 11539.000     38.270      2.792 
 11539.500     32.831      2.789 
 11540.000     27.526      2.785 
 11540.500     24.234      2.815 
 11541.000     24.720      2.835 
 11541.500     26.182      2.841 
 11542.000     27.942      2.836 
 11542.500     30.640      2.807 
 11543.000     32.929      2.794 
 11543.500     34.945      2.786 
 11544.000     35.802      2.779 
 11544.500     31.020      2.779 
 11545.000     27.004      2.796 
 11545.500     22.334      2.804 
 11546.000     20.648      2.813 
 11546.500     19.246      2.817 
 11547.000     19.816      2.821 
 11547.500     22.499      2.824 
 11548.000     26.236      2.819 
 11548.500     30.390      2.791 
 11549.000     29.920      2.778 
 11549.500     28.812      2.769 
 11550.000     25.731      2.784 
 11550.500     22.226      2.808 
 11551.000     20.597      2.820 
 11551.500     21.284      2.825 
 11552.000     22.944      2.830 
 11552.500     24.792      2.826 
 11553.000     27.760      2.816 
 11553.500     30.322      2.791 
 11554.000     30.919      2.784 
 11554.500     33.929      2.784 
 11555.000     35.817      2.798 
 11555.500     37.902      2.799 
 11556.000     36.516      2.788 
 11556.500     29.846      2.782 
 11557.000     24.559      2.787 
 11557.500     20.023      2.803 
 11558.000     19.071      2.808 
 11558.500     19.868      2.809 
 11559.000     18.378      2.809 
 11559.500     18.936      2.813 
 11560.000     19.012      2.832 
 11560.500     20.993      2.804 
 11561.000     21.746      2.777 
 11561.500     20.691      2.741 
 11562.000     19.773      2.725 
 11562.500     17.108      2.729 
 11563.000     16.261      2.731 
 11563.500     16.522      2.753 
 11564.000     18.184      2.773 
 11564.500     17.565      2.812 
 11565.000     15.899      2.749 
 11565.500     15.984      2.679 
 11566.000     15.343      2.638 
 11566.500     16.064      2.673 
 11567.000     15.182      2.703 
 11567.500     15.139      2.709 
 11568.000     14.522      2.690 
 11568.500     13.880      2.645 
 11569.000     13.717      2.609 
 11569.500     13.755      2.610 
 11570.000     13.133      2.634 
 11570.500     13.551      2.668 
 11571.000     13.494      2.677 
 11571.500     15.229      2.687 
 11572.000     15.724      2.700 
 11572.500     15.422      2.740 
 11573.000     14.164      2.762 
 11573.500     13.742      2.755 
 11574.000     15.880      2.748 
 11574.500     18.757      2.759 
 11575.000     19.843      2.776 
 11575.500     19.945      2.799 
 11576.000     20.037      2.818 
 11576.500     20.056      2.827 
 11577.000     21.075      2.832 
 11577.500     21.784      2.838 
 11578.000     24.578      2.844 
 11578.500     29.579      2.834 
 11579.000     36.994      2.819 
 11579.500     40.727      2.810 
 11580.000     41.954      2.805 
 11580.500     39.516      2.793 
 11581.000     37.177      2.788 
 11581.500     32.122      2.791 
 11582.000     29.149      2.795 
 11582.500     25.950      2.806 
 11583.000     26.438      2.809 
 11583.500     27.991      2.802 
 11584.000     30.146      2.792 
 11584.500     32.965      2.782 
 11585.000     34.906      2.787 
 11585.500     34.914      2.789 
 11586.000     33.742      2.787 
 11586.500     28.474      2.784 
 11587.000     26.159      2.790 
 11587.500     21.524      2.803 
 11588.000     19.529      2.824 
 11588.500     18.592      2.847 
 11589.000     16.692      2.848 
 11589.500     17.719      2.848 
 11590.000     19.021      2.849 
 11590.500     21.933      2.820 
 11591.000     21.426      2.792 
 11591.500     21.316      2.753 
 11592.000     19.695      2.742 
 11592.500     19.328      2.748 
 11593.000     18.770      2.750 
 11593.500     18.222      2.737 
 11594.000     17.696      2.728 
 11594.500     17.172      2.723 
 11595.000     16.097      2.720 
 11595.500     13.705      2.718 
 11596.000     12.742      2.718 
 11596.500     12.074      2.721 
 11597.000     12.136      2.724 
 11597.500     12.756      2.732 
 11598.000     14.616      2.742 
 11598.500     15.346      2.766 
 11599.000     15.150      2.768 
 11599.500     14.313      2.768 
 11600.000     15.606      2.754 
 11600.500     17.687      2.720 
 11601.000     19.040      2.733 
 11601.500     19.782      2.738 
 11602.000     20.208      2.752 
 11602.500     21.057      2.762 
 11603.000     23.757      2.765 
 11603.500     27.986      2.765 
 11604.000     30.738      2.753 
 11604.500     33.491      2.732 
 11605.000     33.084      2.726 
 11605.500     33.952      2.752 
 11606.000     35.461      2.780 
 11606.500     39.623      2.801 
 11607.000     40.459      2.801 
 11607.500     41.806      2.800 
 11608.000     41.242      2.791 
 11608.500     44.116      2.783 
 11609.000     40.956      2.783 
 11609.500     40.904      2.786 
 11610.000     32.640      2.805 
 11610.500     21.791      2.822 
 11611.000     20.759      2.826 
 11611.500     21.506      2.830 
 11612.000     22.353      2.828 
 11612.500     24.749      2.821 
 11613.000     23.969      2.809 
 11613.500     21.637      2.797 
 11614.000     20.147      2.792 
 11614.500     20.112      2.784 
 11615.000     21.059      2.785 
 11615.500     23.334      2.786 
 11616.000     30.229      2.795 
 11616.500     35.079      2.807 
 11617.000     35.222      2.814 
 11617.500     34.929      2.815 
 11618.000     32.437      2.808 
 11618.500     31.395      2.794 
 11619.000     30.223      2.781 
 11619.500     28.594      2.773 
 11620.000     27.672      2.776 
 11620.500     26.325      2.797 
 11621.000     27.043      2.809 
 11621.500     30.209      2.815 
 11622.000     31.098      2.796 
 11622.500     32.453      2.776 
 11623.000     32.594      2.783 
 11623.500     32.566      2.804 
 11624.000     31.939      2.799 
 11624.500     29.027      2.832 
 11625.000     27.511      2.807 
 11625.500     24.280      2.798 
 11626.000     24.066      2.787 
 11626.500     21.385      2.772 
 11627.000     27.986      2.757 
 11627.500     32.715      2.769 
 11628.000     36.439      2.774 
 11628.500     37.742      2.780 
 11629.000     37.349      2.783 
 11629.500     33.500      2.791 
