~Version Information Block
 VERS.                2.00:     CWLS LOG ASCII STANDARD - VERSION 2.000000
 WRAP.                  NO:     One Line Per Depth Step
#
~Well Information Block
#MNEM.UNIT                     Data                         Information
#----------   ------------------------------------------   ----------------
 STRT.FT                                     5300.0000:
 STOP.FT                                    10450.0000:
 STEP.FT                                        0.5000:
 NULL.                                       -999.2500:
 COMP.                                                :     COMPANY
 WELL.                                                :     WELL
 FLD .                                                :     FIELD
 CNTY.                                                :     COUNTY
 STAT.                                                :     STATE
 CTRY.                                                :     COUNTRY
 SRVC.                                                :     SERVICE COMPANY
 DATE.                                                :     DATE
 API .                                                :     API NUMBER
 UWI .                                                :     UWI NUMBER
#
~Curve Information Block
#MNEM.UNIT       API CODE      Curve Description
#----------    -------------   -------------------
 DEPT.FT                   :   Depth in Feet
 GR  .GAPI                 :   Gamma Ray
 RHOB.G/C3                 :   Bulk Density
#
~A  DEPTH         GR       RHOB  
# ...
  6008.000     12.243      2.692 
  6008.500     10.735      2.692 
  6009.000     11.229      2.692 
  6009.500     11.632      2.688 
  6010.000     12.583      2.692 
  6010.500     13.137      2.694 
  6011.000     14.731      2.696 
  6011.500     16.073      2.693 
  6012.000     19.733      2.690 
  6012.500     20.729      2.690 
  6013.000     21.772      2.675 
  6013.500     21.244      2.651 
  6014.000     20.905      2.659 
  6014.500     19.908      2.696 
  6015.000     19.594      2.690 
  6015.500     18.216      2.679 
  6016.000     17.068      2.669 
  6016.500     16.417      2.682 
  6017.000     18.249      2.747 
  6017.500     18.736      2.765 
  6018.000     20.109      2.773 
  6018.500     19.664      2.768 
  6019.000     19.168      2.754 
  6019.500     17.976      2.737 
  6020.000     16.030      2.707 
  6020.500     14.513      2.708 
  6021.000     14.756      2.713 
  6021.500     14.647      2.720 
  6022.000     14.458      2.704 
  6022.500     14.080      2.685 
  6023.000     14.853      2.652 
  6023.500     18.502      2.642 
  6024.000     21.352      2.638 
  6024.500     26.689      2.677 
  6025.000     26.396      2.699 
  6025.500     24.779      2.704 
  6026.000     21.537      2.709 
  6026.500     20.119      2.732 
  6027.000     17.758      2.727 
  6027.500     15.736      2.712 
  6028.000     14.186      2.710 
  6028.500     13.790      2.696 
  6029.000     14.040      2.676 
  6029.500     13.317      2.644 
  6030.000     13.482      2.630 
  6030.500      9.823      2.638 
  6031.000     10.916      2.673 
  6031.500     11.207      2.670 
  6032.000     11.914      2.678 
  6032.500      9.770      2.626 
  6033.000      9.189      2.614 
  6033.500      8.456      2.599 
  6034.000      8.449      2.582 
  6034.500      9.445      2.575 
  6035.000      9.309      2.603 
  6035.500      8.969      2.615 
  6036.000      8.261      2.687 
  6036.500      8.158      2.712 
  6037.000      8.017      2.718 
  6037.500      9.136      2.696 
  6038.000     10.041      2.677 
  6038.500      9.861      2.622 
  6039.000      9.927      2.591 
  6039.500     10.092      2.575 
  6040.000     10.733      2.573 
  6040.500     11.330      2.612 
  6041.000     11.359      2.644 
  6041.500     10.663      2.645 
  6042.000     10.731      2.643 
  6042.500     10.702      2.656 
  6043.000     10.756      2.674 
  6043.500     11.640      2.689 
  6044.000     12.208      2.665 
  6044.500     11.263      2.617 
  6045.000     10.652      2.609 
  6045.500     10.756      2.655 
  6046.000     11.685      2.668 
  6046.500     11.743      2.663 
  6047.000     11.434      2.657 
  6047.500     11.536      2.662 
  6048.000     14.330      2.674 
  6048.500     18.807      2.694 
  6049.000     19.340      2.701 
  6049.500     20.268      2.708 
  6050.000     20.952      2.708 
  6050.500     22.028      2.709 
  6051.000     24.027      2.711 
  6051.500     25.913      2.717 
  6052.000     26.114      2.728 
  6052.500     25.183      2.740 
  6053.000     24.368      2.720 
  6053.500     24.464      2.705 
  6054.000     26.706      2.695 
  6054.500     27.472      2.698 
  6055.000     26.293      2.698 
  6055.500     22.093      2.694 
  6056.000     19.061      2.686 
  6056.500     16.082      2.672 
  6057.000     15.373      2.671 
  6057.500     15.988      2.684 
  6058.000     15.517      2.706 
  6058.500     16.332      2.747 
  6059.000     16.928      2.753 
  6059.500     16.840      2.763 
  6060.000     18.535      2.749 
  6060.500     17.259      2.678 
  6061.000     15.485      2.664 
  6061.500     14.360      2.645 
  6062.000     13.791      2.623 
  6062.500     12.477      2.631 
  6063.000     13.796      2.656 
  6063.500     16.254      2.715 
  6064.000     17.496      2.743 
  6064.500     17.973      2.722 
  6065.000     17.074      2.670 
  6065.500     16.357      2.651 
  6066.000     16.745      2.657 
  6066.500     16.332      2.677 
  6067.000     15.050      2.704 
  6067.500     14.522      2.713 
  6068.000     13.706      2.708 
  6068.500     12.150      2.701 
  6069.000     10.612      2.683 
  6069.500      9.042      2.659 
  6070.000      8.363      2.632 
  6070.500      8.569      2.626 
  6071.000      9.300      2.631 
  6071.500      7.740      2.654 
  6072.000      8.818      2.729 
  6072.500      9.482      2.729 
  6073.000      9.996      2.715 
  6073.500     12.010      2.660 
  6074.000     11.975      2.640 
  6074.500     12.967      2.640 
  6075.000     13.346      2.650 
  6075.500     14.892      2.664 
  6076.000     14.615      2.678 
  6076.500     14.591      2.680 
  6077.000     13.386      2.674 
  6077.500     13.893      2.675 
  6078.000     14.402      2.696 
  6078.500     13.220      2.703 
  6079.000     12.581      2.720 
  6079.500     11.729      2.715 
  6080.000     12.677      2.705 
  6080.500     11.778      2.692 
  6081.000     10.853      2.687 
  6081.500     10.019      2.684 
  6082.000      9.814      2.686 
  6082.500      9.004      2.709 
  6083.000      9.031      2.737 
  6083.500      8.195      2.773 
  6084.000      8.833      2.762 
  6084.500      9.753      2.751 
  6085.000     10.644      2.742 
  6085.500     11.024      2.711 
  6086.000     11.739      2.692 
  6086.500     11.718      2.675 
  6087.000     11.391      2.669 
  6087.500     10.509      2.675 
  6088.000     11.429      2.695 
  6088.500     11.539      2.687 
  6089.000     11.372      2.675 
  6089.500     11.674      2.659 
  6090.000      8.787      2.668 
  6090.500      9.648      2.680 
  6091.000      9.672      2.680 
  6091.500      9.495      2.684 
  6092.000     10.013      2.685 
  6092.500      9.845      2.674 
  6093.000      9.865      2.665 
  6093.500      9.288      2.681 
  6094.000      9.769      2.706 
  6094.500      9.838      2.711 
  6095.000     10.593      2.699 
  6095.500     10.665      2.697 
  6096.000     11.421      2.691 
  6096.500     13.021      2.719 
  6097.000     13.271      2.725 
  6097.500     13.884      2.715 
  6098.000     14.447      2.701 
  6098.500     13.013      2.692 
  6099.000     12.239      2.695 
  6099.500     12.393      2.700 
  6100.000     11.713      2.714 
  6100.500     12.509      2.704 
  6101.000     13.394      2.680 
  6101.500     13.854      2.686 
  6102.000     14.555      2.710 
  6102.500     14.710      2.764 
  6103.000     16.333      2.776 
  6103.500     15.482      2.769 
  6104.000     15.692      2.754 
  6104.500     14.174      2.733 
  6105.000     13.763      2.734 
  6105.500     14.967      2.737 
  6106.000     16.772      2.742 
  6106.500     19.776      2.717 
  6107.000     21.880      2.698 
  6107.500     22.503      2.690 
  6108.000     21.856      2.684 
  6108.500     21.211      2.686 
  6109.000     20.875      2.694 
  6109.500     20.738      2.703 
  6110.000     20.968      2.700 
  6110.500     19.704      2.690 
  6111.000     17.692      2.679 
  6111.500     15.338      2.671 
  6112.000     14.552      2.674 
  6112.500     14.840      2.678 
  6113.000     13.891      2.673 
  6113.500     14.550      2.670 
  6114.000     15.486      2.669 
  6114.500     20.227      2.678 
  6115.000     21.726      2.689 
  6115.500     23.347      2.692 
  6116.000     23.703      2.691 
  6116.500     21.222      2.680 
  6117.000     22.100      2.684 
  6117.500     21.925      2.701 
  6118.000     26.933      2.712 
  6118.500     29.582      2.719 
  6119.000     30.635      2.723 
  6119.500     30.449      2.726 
  6120.000     29.429      2.741 
  6120.500     28.291      2.746 
  6121.000     27.125      2.739 
  6121.500     26.852      2.725 
  6122.000     27.071      2.717 
  6122.500     30.511      2.714 
  6123.000     32.312      2.714 
  6123.500     33.964      2.713 
  6124.000     33.443      2.714 
  6124.500     31.303      2.727 
  6125.000     28.986      2.759 
  6125.500     25.559      2.761 
