~Version Information Block
 VERS.                2.00:     CWLS LOG ASCII STANDARD - VERSION 2.000000
 WRAP.                  NO:     One Line Per Depth Step
#
~Well Information Block
#MNEM.UNIT                     Data                         Information
#----------   ------------------------------------------   ----------------
 STRT.FT                                     5300.0000:
 STOP.FT                                    10450.0000:
 STEP.FT                                        0.5000:
 NULL.                                       -999.2500:
 COMP.                                                :     COMPANY
 WELL.                                                :     WELL
 FLD .                                                :     FIELD
 CNTY.                                                :     COUNTY
 STAT.                                                :     STATE
 CTRY.                                                :     COUNTRY
 SRVC.                                                :     SERVICE COMPANY
 DATE.                                                :     DATE
 API .                                                :     API NUMBER
 UWI .                                                :     UWI NUMBER
#
~Curve Information Block
#MNEM.UNIT       API CODE      Curve Description
#----------    -------------   -------------------
 DEPT.FT                   :   Depth in Feet
 GR  .GAPI                 :   Gamma Ray
 RHOB.G/C3                 :   Bulk Density
#
~A  DEPTH         GR       RHOB  
# ...
  9312.000     32.733      2.799 
  9312.500     25.327      2.813 
  9313.000     22.529      2.818 
  9313.500     19.287      2.823 
  9314.000     18.221      2.831 
  9314.500     18.904      2.836 
  9315.000     25.465      2.833 
  9315.500     31.807      2.824 
  9316.000     38.140      2.808 
  9316.500     40.121      2.780 
  9317.000     37.374      2.777 
  9317.500     35.334      2.777 
  9318.000     33.427      2.780 
  9318.500     28.545      2.785 
  9319.000     25.408      2.789 
  9319.500     21.695      2.800 
  9320.000     21.537      2.804 
  9320.500     21.038      2.809 
  9321.000     21.454      2.809 
  9321.500     21.848      2.806 
  9322.000     21.016      2.808 
  9322.500     20.150      2.812 
  9323.000     18.375      2.812 
  9323.500     17.608      2.817 
  9324.000     17.876      2.824 
  9324.500     19.661      2.837 
  9325.000     20.245      2.838 
  9325.500     20.129      2.830 
  9326.000     20.420      2.826 
  9326.500     18.425      2.823 
  9327.000     17.104      2.818 
  9327.500     17.478      2.802 
  9328.000     20.264      2.799 
  9328.500     26.113      2.792 
  9329.000     31.042      2.786 
  9329.500     36.608      2.777 
  9330.000     40.530      2.765 
  9330.500     41.581      2.755 
  9331.000     40.710      2.755 
  9331.500     37.895      2.769 
  9332.000     30.637      2.786 
  9332.500     27.360      2.774 
  9333.000     25.144      2.769 
  9333.500     22.463      2.769 
  9334.000     22.432      2.770 
  9334.500     20.819      2.780 
  9335.000     20.918      2.782 
  9335.500     20.135      2.796 
  9336.000     20.253      2.792 
  9336.500     20.247      2.782 
  9337.000     20.141      2.773 
  9337.500     21.056      2.724 
  9338.000     21.945      2.701 
  9338.500     23.550      2.695 
  9339.000     23.656      2.711 
  9339.500     22.847      2.716 
  9340.000     21.952      2.716 
  9340.500     21.030      2.703 
  9341.000     21.085      2.708 
  9341.500     21.175      2.728 
  9342.000     21.603      2.743 
  9342.500     19.932      2.769 
  9343.000     18.721      2.785 
  9343.500     17.121      2.796 
  9344.000     17.067      2.799 
  9344.500     17.283      2.794 
  9345.000     19.564      2.795 
  9345.500     20.898      2.812 
  9346.000     23.340      2.825 
  9346.500     24.205      2.832 
  9347.000     24.376      2.831 
  9347.500     22.893      2.832 
  9348.000     22.635      2.837 
  9348.500     22.602      2.844 
  9349.000     23.278      2.843 
  9349.500     24.960      2.838 
  9350.000     27.612      2.831 
  9350.500     32.940      2.826 
  9351.000     30.765      2.821 
  9351.500     24.824      2.816 
  9352.000     22.374      2.836 
  9352.500     20.211      2.855 
  9353.000     20.117      2.855 
  9353.500     21.674      2.832 
  9354.000     27.920      2.794 
  9354.500     30.335      2.799 
  9355.000     29.227      2.802 
  9355.500     28.599      2.820 
  9356.000     29.225      2.825 
  9356.500     33.729      2.827 
  9357.000     36.334      2.817 
  9357.500     37.902      2.807 
  9358.000     37.670      2.801 
  9358.500     37.645      2.801 
  9359.000     37.856      2.798 
  9359.500     37.145      2.807 
  9360.000     37.699      2.809 
  9360.500     34.992      2.816 
  9361.000     32.143      2.815 
  9361.500     29.532      2.815 
  9362.000     27.830      2.815 
  9362.500     30.321      2.814 
  9363.000     34.733      2.814 
  9363.500     36.780      2.822 
  9364.000     36.318      2.829 
  9364.500     30.570      2.841 
  9365.000     28.394      2.842 
  9365.500     28.067      2.836 
  9366.000     29.466      2.831 
  9366.500     31.971      2.830 
  9367.000     33.949      2.828 
  9367.500     35.405      2.826 
  9368.000     35.399      2.822 
  9368.500     34.399      2.811 
  9369.000     32.444      2.810 
  9369.500     31.479      2.808 
  9370.000     30.177      2.804 
  9370.500     30.188      2.796 
  9371.000     30.034      2.793 
  9371.500     35.767      2.787 
  9372.000     36.138      2.784 
  9372.500     32.021      2.784 
  9373.000     25.211      2.807 
  9373.500     20.474      2.811 
  9374.000     17.078      2.817 
  9374.500     16.013      2.816 
  9375.000     15.986      2.814 
  9375.500     16.884      2.812 
  9376.000     19.382      2.799 
  9376.500     20.419      2.778 
  9377.000     20.990      2.780 
  9377.500     19.883      2.784 
  9378.000     20.111      2.806 
  9378.500     22.029      2.828 
  9379.000     24.415      2.840 
  9379.500     26.587      2.836 
  9380.000     26.441      2.809 
  9380.500     27.590      2.787 
  9381.000     28.291      2.767 
  9381.500     29.904      2.727 
  9382.000     29.889      2.704 
  9382.500     28.302      2.708 
  9383.000     27.469      2.731 
  9383.500     25.854      2.770 
  9384.000     25.782      2.788 
  9384.500     25.780      2.798 
  9385.000     25.825      2.802 
  9385.500     25.609      2.803 
  9386.000     27.124      2.801 
  9386.500     30.363      2.783 
  9387.000     34.012      2.756 
  9387.500     36.464      2.708 
  9388.000     37.142      2.689 
  9388.500     39.442      2.671 
  9389.000     40.770      2.670 
  9389.500     40.437      2.694 
  9390.000     37.299      2.724 
  9390.500     32.291      2.752 
  9391.000     29.952      2.776 
  9391.500     26.539      2.800 
  9392.000     23.229      2.793 
  9392.500     21.847      2.775 
  9393.000     20.565      2.751 
  9393.500     19.584      2.742 
  9394.000     18.588      2.742 
  9394.500     19.178      2.733 
  9395.000     20.069      2.719 
  9395.500     20.582      2.714 
  9396.000     22.524      2.717 
  9396.500     25.831      2.738 
  9397.000     27.940      2.743 
  9397.500     28.180      2.745 
  9398.000     27.954      2.751 
  9398.500     24.484      2.795 
  9399.000     22.553      2.803 
  9399.500     19.496      2.809 
  9400.000     20.037      2.809 
  9400.500     19.617      2.809 
  9401.000     19.486      2.803 
  9401.500     21.094      2.782 
  9402.000     22.564      2.734 
  9402.500     24.142      2.660 
  9403.000     24.181      2.649 
  9403.500     24.215      2.655 
  9404.000     24.198      2.673 
  9404.500     24.206      2.677 
  9405.000     24.154      2.672 
  9405.500     24.832      2.670 
  9406.000     25.441      2.681 
  9406.500     27.242      2.700 
  9407.000     29.151      2.737 
  9407.500     33.495      2.772 
  9408.000     35.797      2.800 
  9408.500     36.297      2.820 
  9409.000     34.282      2.823 
  9409.500     30.667      2.824 
  9410.000     26.300      2.823 
  9410.500     23.059      2.839 
  9411.000     26.893      2.852 
  9411.500     31.295      2.849 
  9412.000     40.212      2.847 
  9412.500     45.950      2.841 
  9413.000     51.572      2.834 
  9413.500     49.585      2.829 
  9414.000     42.337      2.830 
  9414.500     36.520      2.850 
  9415.000     30.049      2.860 
  9415.500     29.006      2.868 
  9416.000     29.617      2.869 
  9416.500     30.260      2.854 
  9417.000     30.593      2.834 
  9417.500     30.161      2.814 
  9418.000     31.293      2.812 
  9418.500     38.873      2.814 
  9419.000     40.270      2.818 
  9419.500     40.180      2.818 
  9420.000     40.353      2.821 
  9420.500     42.273      2.818 
  9421.000     46.612      2.810 
  9421.500     49.473      2.799 
  9422.000     46.578      2.793 
  9422.500     38.924      2.822 
  9423.000     20.219      2.835 
  9423.500     19.702      2.841 
  9424.000     16.942      2.825 
  9424.500     18.270      2.737 
  9425.000     19.955      2.727 
  9425.500     21.641      2.717 
  9426.000     27.679      2.723 
  9426.500     38.337      2.761 
  9427.000     41.869      2.802 
  9427.500     40.291      2.825 
  9428.000     36.193      2.834 
  9428.500     30.658      2.852 
  9429.000     31.633      2.846 
  9429.500     34.914      2.850 
