~Version Information Block
 VERS.                2.00:     CWLS LOG ASCII STANDARD - VERSION 2.000000
 WRAP.                  NO:     One Line Per Depth Step
#
~Well Information Block
#MNEM.UNIT                     Data                         Information
#----------   ------------------------------------------   ----------------
 STRT.FT                                     5300.0000:
 STOP.FT                                    10450.0000:
 STEP.FT                                        0.5000:
 NULL.                                       -999.2500:
 COMP.                                                :     COMPANY
 WELL.                                                :     WELL
 FLD .                                                :     FIELD
 CNTY.                                                :     COUNTY
 STAT.                                                :     STATE
 CTRY.                                                :     COUNTRY
 SRVC.                                                :     SERVICE COMPANY
 DATE.                                                :     DATE
 API .                                                :     API NUMBER
 UWI .                                                :     UWI NUMBER
#
~Curve Information Block
#MNEM.UNIT       API CODE      Curve Description
#----------    -------------   -------------------
 DEPT.FT                   :   Depth in Feet
 GR  .GAPI                 :   Gamma Ray
 RHOB.G/C3                 :   Bulk Density
#
~A  DEPTH         GR       RHOB  
  5300.000    129.762      2.605 
  5300.500    129.762      2.653 
  5301.000    128.175      2.678 
  5301.500    126.587      2.678 
  5302.000    125.794      2.678 
  5302.500    126.587      2.561 
  5303.000    127.381      2.334 
  5303.500    127.622      2.340 
  5304.000    129.306      2.180 
  5304.500    130.543      2.103 
  5305.000    133.573      2.160 
  5305.500    136.556      2.320 
  5306.000    138.338      2.480 
  5306.500    136.664      2.564 
  5307.000    135.528      2.570 
  5307.500    134.526      2.578 
  5308.000    132.952      2.615 
  5308.500    132.536      2.595 
  5309.000    138.694      2.708 
  5309.500    141.471      2.721 
  5310.000    145.033      2.729 
  5310.500    146.303      2.751 
  5311.000    144.984      2.741 
  5311.500    142.668      2.691 
  5312.000    141.250      2.613 
  5312.500    140.303      2.493 
  5313.000    140.150      2.447 
  5313.500    139.476      2.520 
  5314.000    138.318      2.573 
  5314.500    137.530      2.569 
  5315.000    138.042      2.555 
  5315.500    135.073      2.457 
  5316.000    135.725      2.358 
  5316.500    132.649      2.034 
  5317.000    130.386      2.034 
  5317.500    129.521      2.125 
  5318.000    128.927      2.287 
  5318.500    130.580      2.430 
  5319.000    132.558      2.487 
  5319.500    139.172      2.507 
  5320.000    141.029      2.517 
  5320.500    146.205      2.570 
  5321.000    147.822      2.542 
  5321.500    143.831      2.425 
  5322.000    140.215      2.255 
  5322.500    137.839      2.270 
  5323.000    134.312      2.396 
  5323.500    133.423      2.387 
  5324.000    132.380      2.374 
  5324.500    131.452      2.277 
  5325.000    132.886      2.190 
  5325.500    132.885      2.293 
  5326.000    133.041      2.407 
  5326.500    131.441      2.475 
  5327.000    126.667      2.468 
  5327.500    125.401      2.482 
  5328.000    124.416      2.473 
  5328.500    123.575      2.483 
  5329.000    122.578      2.409 
  5329.500    121.622      2.452 
  5330.000    121.229      2.515 
  5330.500    120.106      2.506 
  5331.000    124.612      2.477 
  5331.500    127.517      2.442 
  5332.000    129.872      2.384 
  5332.500    129.597      2.409 
  5333.000    130.463      2.523 
  5333.500    130.404      2.494 
  5334.000    129.622      2.497 
  5334.500    128.181      2.516 
  5335.000    126.648      2.560 
  5335.500    125.003      2.631 
  5336.000    125.777      2.611 
  5336.500    126.720      2.408 
  5337.000    125.999      2.333 
  5337.500    124.666      2.362 
  5338.000    120.229      2.413 
  5338.500    117.360      2.490 
  5339.000    117.436      2.546 
  5339.500    122.438      2.626 
  5340.000    124.857      2.654 
  5340.500    125.338      2.497 
  5341.000    122.565      2.417 
  5341.500    121.222      2.401 
  5342.000    119.835      2.392 
  5342.500    130.142      2.308 
  5343.000    134.555      2.254 
  5343.500    134.779      2.199 
  5344.000    131.602      2.235 
  5344.500    125.739      2.452 
  5345.000    124.589      2.636 
  5345.500    123.205      2.614 
  5346.000    121.450      2.495 
  5346.500    118.711      2.527 
  5347.000    115.826      2.365 
  5347.500    114.614      2.453 
  5348.000    114.657      2.485 
  5348.500    114.536      2.495 
  5349.000    113.629      2.194 
  5349.500    111.415      2.221 
  5350.000    110.554      2.414 
  5350.500    109.863      2.473 
  5351.000    110.516      2.454 
  5351.500    111.192      2.434 
  5352.000    112.876      2.425 
  5352.500    115.188      2.445 
  5353.000    118.188      2.459 
  5353.500    119.939      2.466 
  5354.000    125.032      2.459 
  5354.500    130.075      2.472 
  5355.000    131.534      2.450 
  5355.500    130.382      2.410 
  5356.000    128.428      2.418 
  5356.500    126.469      2.467 
  5357.000    126.708      2.565 
  5357.500    126.387      2.558 
  5358.000    126.902      2.569 
  5358.500    122.308      2.565 
  5359.000    120.498      2.485 
  5359.500    117.164      2.438 
  5360.000    116.044      2.481 
  5360.500    114.279      2.517 
  5361.000    113.519      2.624 
  5361.500    110.549      2.609 
  5362.000    109.111      2.628 
  5362.500    108.238      2.622 
  5363.000    108.326      2.614 
  5363.500    108.334      2.605 
  5364.000    108.166      2.600 
  5364.500    107.325      2.603 
  5365.000    106.584      2.723 
  5365.500    107.635      2.786 
  5366.000    110.490      2.806 
  5366.500    116.174      2.692 
  5367.000    118.836      2.539 
  5367.500    118.275      2.548 
  5368.000    114.997      2.613 
  5368.500    114.534      2.641 
  5369.000    114.793      2.668 
  5369.500    116.238      2.641 
  5370.000    116.162      2.275 
  5370.500    114.764      2.005 
  5371.000    114.274      1.981 
  5371.500    110.636      2.003 
  5372.000    106.554      2.523 
  5372.500    100.475      2.454 
  5373.000     96.941      2.651 
  5373.500     93.007      2.658 
  5374.000     92.318      2.662 
  5374.500     93.003      2.668 
  5375.000     94.330      2.678 
  5375.500     95.190      2.676 
  5376.000     97.468      2.649 
  5376.500     97.616      2.641 
  5377.000     99.444      2.637 
  5377.500     99.559      2.677 
  5378.000    101.308      2.665 
  5378.500    100.875      2.649 
  5379.000     98.771      2.605 
  5379.500     93.827      2.586 
  5380.000     88.790      2.652 
  5380.500     90.427      2.643 
  5381.000     94.789      2.631 
  5381.500     99.842      2.618 
  5382.000    106.615      2.606 
  5382.500    108.175      2.607 
  5383.000    107.313      2.604 
  5383.500    106.756      2.581 
  5384.000    107.697      2.544 
  5384.500    105.476      2.555 
  5385.000    103.484      2.569 
  5385.500    101.066      2.622 
  5386.000     99.326      2.655 
  5386.500     99.499      2.651 
  5387.000    104.475      2.656 
  5387.500    108.952      2.652 
  5388.000    107.971      2.641 
  5388.500    105.776      2.531 
  5389.000    105.974      2.456 
  5389.500    106.054      2.438 
  5390.000    104.918      2.518 
  5390.500    103.591      2.601 
  5391.000    102.699      2.620 
  5391.500    103.630      2.625 
  5392.000    104.413      2.641 
  5392.500    106.664      2.652 
  5393.000    107.723      2.725 
  5393.500    108.783      2.743 
  5394.000    110.187      2.422 
  5394.500    112.670      2.471 
  5395.000    114.145      2.233 
  5395.500    111.348      2.261 
  5396.000    104.060      2.412 
  5396.500     91.914      2.627 
  5397.000     89.484      2.599 
  5397.500     92.736      2.566 
  5398.000     98.255      2.105 
  5398.500    106.545      2.113 
  5399.000    108.420      2.314 
  5399.500    109.138      2.227 
  5400.000    105.812      2.548 
  5400.500    103.043      2.637 
  5401.000    101.215      2.698 
  5401.500     99.769      2.777 
  5402.000     99.333      2.552 
  5402.500    101.735      2.471 
  5403.000    103.069      2.198 
  5403.500    105.012      2.208 
  5404.000    104.055      2.420 
  5404.500    101.288      2.576 
  5405.000    101.467      2.611 
  5405.500     99.096      2.605 
  5406.000     95.933      2.473 
  5406.500     98.158      2.117 
  5407.000    102.183      2.074 
  5407.500    108.271      2.304 
  5408.000    111.140      2.529 
  5408.500    112.437      2.613 
  5409.000    112.405      2.637 
  5409.500    111.416      2.597 
  5410.000    107.969      2.550 
  5410.500    101.892      2.621 
  5411.000     98.713      2.653 
  5411.500     94.627      2.672 
  5412.000     94.758      2.706 
  5412.500     95.744      2.003 
  5413.000     99.949      2.003 
  5413.500    101.828      1.942 
  5414.000    102.703      2.001 
  5414.500    101.837      2.170 
  5415.000     97.970      2.570 
  5415.500     94.585      2.643 
  5416.000     92.269      2.639 
  5416.500     92.660      2.529 
  5417.000     93.159      2.402 
  5417.500     90.663      2.324 
