~Version Information Block
 VERS.                2.00:     CWLS LOG ASCII STANDARD - VERSION 2.000000
 WRAP.                  NO:     One Line Per Depth Step
#
~Well Information Block
#MNEM.UNIT                     Data                         Information
#----------   ------------------------------------------   ----------------
 STRT.FT                                    10450.0000:
 STOP.FT                                    16050.0000:
 STEP.FT                                        0.5000:
 NULL.                                       -999.2500:
 COMP.                                                :     COMPANY
 WELL.                                                :     WELL
 FLD .                                                :     FIELD
 CNTY.                                                :     COUNTY
 STAT.                                                :     STATE
 CTRY.                                                :     COUNTRY
 SRVC.                                                :     SERVICE COMPANY
 DATE.                                                :     DATE
 API .                                                :     API NUMBER
 UWI .                                                :     UWI NUMBER
#
~Curve Information Block
#MNEM.UNIT       API CODE      Curve Description
#----------    -------------   -------------------
 DEPT.FT                   :   Depth in Feet
 GR  .GAPI                 :   Gamma Ray
 RHOB.G/C3                 :   Bulk Density
#
~A  DEPTH         GR       RHOB  
 10450.000     24.706      2.836 
 10450.500     22.353      2.840 
 10451.000     20.784      2.840 
 10451.500     20.784      2.842 
 10452.000     24.706      2.842 
 10452.500     24.706      2.840 
 10453.000     22.353      2.836 
 10453.500     20.568      2.840 
 10454.000     19.946      2.830 
 10454.500     22.246      2.821 
 10455.000     28.099      2.814 
 10455.500     30.665      2.812 
 10456.000     32.842      2.812 
 10456.500     39.704      2.807 
 10457.000     40.162      2.805 
 10457.500     41.774      2.797 
 10458.000     41.505      2.790 
 10458.500     39.264      2.797 
 10459.000     36.435      2.805 
 10459.500     34.225      2.819 
 10460.000     34.276      2.830 
 10460.500     36.568      2.830 
 10461.000     37.436      2.825 
 10461.500     35.823      2.813 
 10462.000     32.202      2.810 
 10462.500     28.206      2.820 
 10463.000     28.556      2.832 
 10463.500     28.499      2.841 
 10464.000     28.405      2.846 
 10464.500     24.592      2.826 
 10465.000     24.185      2.821 
 10465.500     28.367      2.824 
 10466.000     36.284      2.849 
 10466.500     44.480      2.852 
 10467.000     47.056      2.846 
 10467.500     43.175      2.817 
 10468.000     36.898      2.806 
 10468.500     24.369      2.804 
 10469.000     21.400      2.804 
 10469.500     19.948      2.805 
 10470.000     20.474      2.804 
 10470.500     23.795      2.807 
 10471.000     24.564      2.808 
 10471.500     26.011      2.811 
 10472.000     26.229      2.816 
 10472.500     24.146      2.823 
 10473.000     22.010      2.822 
 10473.500     19.328      2.815 
 10474.000     17.409      2.804 
 10474.500     16.081      2.810 
 10475.000     17.221      2.820 
 10475.500     19.134      2.829 
 10476.000     21.981      2.839 
 10476.500     23.715      2.840 
 10477.000     24.234      2.833 
 10477.500     21.358      2.822 
 10478.000     19.044      2.820 
 10478.500     19.625      2.821 
 10479.000     22.828      2.824 
 10479.500     33.347      2.829 
 10480.000     42.179      2.837 
 10480.500     40.521      2.844 
 10481.000     39.595      2.847 
 10481.500     30.108      2.824 
 10482.000     26.818      2.818 
 10482.500     19.963      2.822 
 10483.000     19.929      2.828 
 10483.500     20.983      2.841 
 10484.000     23.798      2.844 
 10484.500     29.602      2.843 
 10485.000     30.894      2.842 
 10485.500     29.791      2.843 
 10486.000     28.644      2.842 
 10486.500     25.967      2.820 
 10487.000     25.658      2.814 
 10487.500     24.875      2.807 
 10488.000     24.074      2.814 
 10488.500     21.130      2.826 
 10489.000     20.385      2.836 
 10489.500     20.247      2.843 
 10490.000     19.967      2.847 
 10490.500     21.247      2.839 
 10491.000     21.550      2.834 
 10491.500     22.140      2.835 
 10492.000     24.753      2.840 
 10492.500     27.642      2.837 
 10493.000     31.996      2.819 
 10493.500     36.775      2.804 
 10494.000     41.345      2.796 
 10494.500     42.006      2.812 
 10495.000     38.926      2.822 
 10495.500     33.364      2.826 
 10496.000     29.700      2.827 
 10496.500     26.069      2.843 
 10497.000     25.746      2.852 
 10497.500     23.878      2.856 
 10498.000     22.794      2.849 
 10498.500     21.725      2.831 
 10499.000     20.665      2.831 
 10499.500     19.771      2.833 
 10500.000     21.720      2.840 
 10500.500     25.032      2.842 
 10501.000     27.208      2.835 
 10501.500     28.087      2.828 
 10502.000     27.884      2.826 
 10502.500     25.308      2.830 
 10503.000     24.105      2.832 
 10503.500     22.519      2.831 
 10504.000     21.433      2.832 
 10504.500     19.582      2.830 
 10505.000     18.161      2.828 
 10505.500     19.517      2.824 
 10506.000     20.129      2.821 
 10506.500     20.908      2.823 
 10507.000     20.207      2.828 
 10507.500     19.384      2.842 
 10508.000     18.978      2.854 
 10508.500     18.980      2.855 
 10509.000     19.232      2.851 
 10509.500     18.742      2.844 
 10510.000     16.892      2.843 
 10510.500     19.273      2.857 
 10511.000     19.541      2.853 
 10511.500     24.094      2.849 
 10512.000     24.898      2.839 
 10512.500     22.642      2.820 
 10513.000     21.602      2.824 
 10513.500     20.887      2.835 
 10514.000     20.975      2.839 
 10514.500     21.135      2.839 
 10515.000     20.191      2.836 
 10515.500     18.705      2.841 
 10516.000     15.913      2.866 
 10516.500     14.890      2.874 
 10517.000     14.460      2.870 
 10517.500     15.169      2.863 
 10518.000     16.228      2.847 
 10518.500     16.146      2.838 
 10519.000     17.287      2.828 
 10519.500     19.493      2.833 
 10520.000     20.706      2.836 
 10520.500     23.143      2.847 
 10521.000     22.801      2.852 
 10521.500     19.968      2.862 
 10522.000     17.485      2.865 
 10522.500     17.464      2.855 
 10523.000     19.777      2.850 
 10523.500     22.459      2.838 
 10524.000     24.079      2.832 
 10524.500     26.055      2.827 
 10525.000     26.021      2.827 
 10525.500     25.556      2.828 
 10526.000     25.508      2.831 
 10526.500     24.895      2.840 
 10527.000     21.892      2.844 
 10527.500     21.832      2.837 
 10528.000     24.118      2.831 
 10528.500     24.518      2.824 
 10529.000     23.752      2.825 
 10529.500     22.137      2.826 
 10530.000     20.962      2.825 
 10530.500     20.052      2.846 
 10531.000     21.654      2.852 
 10531.500     21.450      2.854 
 10532.000     27.282      2.838 
 10532.500     31.064      2.837 
 10533.000     33.219      2.839 
 10533.500     35.016      2.836 
 10534.000     34.769      2.834 
 10534.500     29.104      2.826 
 10535.000     25.544      2.832 
 10535.500     19.163      2.851 
 10536.000     17.911      2.857 
 10536.500     14.366      2.875 
 10537.000     13.696      2.872 
 10537.500     15.042      2.862 
 10538.000     16.216      2.851 
 10538.500     23.249      2.840 
 10539.000     32.822      2.837 
 10539.500     44.059      2.836 
 10540.000     60.065      2.826 
 10540.500     82.560      2.804 
 10541.000     82.885      2.773 
 10541.500     77.961      2.766 
 10542.000     57.346      2.794 
 10542.500     39.129      2.811 
 10543.000     24.958      2.850 
 10543.500     25.596      2.848 
 10544.000     23.206      2.849 
 10544.500     42.529      2.835 
 10545.000     54.889      2.824 
 10545.500     78.777      2.810 
 10546.000    100.510      2.781 
 10546.500    123.498      2.746 
 10547.000    120.226      2.710 
 10547.500    118.743      2.703 
 10548.000     95.088      2.707 
 10548.500     51.105      2.767 
 10549.000     36.484      2.798 
 10549.500     26.992      2.823 
 10550.000     22.379      2.837 
 10550.500     22.078      2.831 
 10551.000     26.563      2.824 
 10551.500     31.511      2.824 
 10552.000     34.923      2.824 
 10552.500     34.515      2.824 
 10553.000     32.956      2.826 
 10553.500     27.873      2.830 
 10554.000     25.325      2.830 
 10554.500     20.762      2.830 
 10555.000     19.154      2.828 
 10555.500     21.267      2.828 
 10556.000     20.965      2.825 
 10556.500     43.429      2.819 
 10557.000     53.150      2.813 
 10557.500     59.149      2.791 
 10558.000     53.576      2.780 
 10558.500     38.429      2.800 
 10559.000     30.058      2.822 
 10559.500     27.025      2.847 
 10560.000     28.851      2.842 
 10560.500     33.688      2.814 
 10561.000     35.346      2.809 
 10561.500     38.565      2.793 
 10562.000     39.525      2.788 
 10562.500     40.251      2.786 
 10563.000     41.174      2.785 
 10563.500     40.778      2.794 
 10564.000     38.038      2.810 
 10564.500     32.670      2.819 
 10565.000     30.026      2.822 
 10565.500     30.104      2.817 
 10566.000     31.889      2.799 
 10566.500     37.088      2.781 
 10567.000     43.832      2.732 
 10567.500     47.113      2.724 
