~Version Information Block
 VERS.                2.00:     CWLS LOG ASCII STANDARD - VERSION 2.000000
 WRAP.                  NO:     One Line Per Depth Step
#
~Well Information Block
#MNEM.UNIT                     Data                         Information
#----------   ------------------------------------------   ----------------
 STRT.FT                                    10450.0000:
 STOP.FT                                    16050.0000:
 STEP.FT                                        0.5000:
 NULL.                                       -999.2500:
 COMP.                                                :     COMPANY
 WELL.                                                :     WELL
 FLD .                                                :     FIELD
 CNTY.                                                :     COUNTY
 STAT.                                                :     STATE
 CTRY.                                                :     COUNTRY
 SRVC.                                                :     SERVICE COMPANY
 DATE.                                                :     DATE
 API .                                                :     API NUMBER
 UWI .                                                :     UWI NUMBER
#
~Curve Information Block
#MNEM.UNIT       API CODE      Curve Description
#----------    -------------   -------------------
 DEPT.FT                   :   Depth in Feet
 GR  .GAPI                 :   Gamma Ray
 RHOB.G/C3                 :   Bulk Density
#
~A  DEPTH         GR       RHOB  
# ...
 11866.000     16.682      2.834 
 11866.500     15.978      2.832 
 11867.000     18.388      2.838 
 11867.500     19.328      2.846 
 11868.000     20.775      2.848 
 11868.500     22.652      2.835 
 11869.000     24.838      2.819 
 11869.500     25.962      2.811 
 11870.000     29.601      2.807 
 11870.500     34.322      2.818 
 11871.000     40.738      2.831 
 11871.500     40.911      2.831 
 11872.000     39.580      2.829 
 11872.500     34.170      2.817 
 11873.000     30.661      2.816 
 11873.500     29.384      2.811 
 11874.000     30.666      2.808 
 11874.500     32.133      2.807 
 11875.000     33.744      2.806 
 11875.500     32.388      2.805 
 11876.000     30.268      2.805 
 11876.500     29.112      2.812 
 11877.000     26.836      2.819 
 11877.500     24.597      2.822 
 11878.000     23.873      2.821 
 11878.500     23.831      2.820 
 11879.000     24.073      2.810 
 11879.500     24.008      2.805 
 11880.000     25.053      2.802 
 11880.500     26.511      2.801 
 11881.000     36.188      2.800 
 11881.500     36.243      2.801 
 11882.000     36.111      2.798 
 11882.500     29.096      2.813 
 11883.000     26.971      2.821 
 11883.500     26.882      2.810 
 11884.000     27.361      2.805 
 11884.500     27.802      2.801 
 11885.000     27.851      2.798 
 11885.500     27.498      2.789 
 11886.000     28.197      2.770 
 11886.500     33.117      2.747 
 11887.000     35.957      2.741 
 11887.500     39.354      2.753 
 11888.000     37.622      2.768 
 11888.500     34.719      2.790 
 11889.000     33.679      2.788 
 11889.500     32.905      2.787 
 11890.000     36.986      2.793 
 11890.500     39.265      2.812 
 11891.000     39.905      2.812 
 11891.500     40.569      2.812 
 11892.000     41.085      2.807 
 11892.500     40.405      2.772 
 11893.000     42.093      2.763 
 11893.500     42.723      2.751 
 11894.000     43.014      2.749 
 11894.500     40.152      2.765 
 11895.000     38.092      2.769 
 11895.500     36.061      2.759 
 11896.000     34.986      2.744 
 11896.500     31.468      2.729 
 11897.000     31.035      2.731 
 11897.500     30.846      2.736 
 11898.000     30.967      2.736 
 11898.500     31.155      2.734 
 11899.000     32.044      2.735 
 11899.500     36.461      2.736 
 11900.000     39.683      2.737 
 11900.500     45.596      2.747 
 11901.000     48.198      2.759 
 11901.500     48.287      2.757 
 11902.000     48.244      2.747 
 11902.500     48.262      2.727 
 11903.000     47.981      2.721 
 11903.500     46.699      2.716 
 11904.000     44.472      2.715 
 11904.500     40.956      2.710 
 11905.000     39.772      2.710 
 11905.500     38.840      2.719 
 11906.000     35.619      2.724 
 11906.500     35.043      2.734 
 11907.000     34.025      2.731 
 11907.500     34.897      2.725 
 11908.000     34.334      2.719 
 11908.500     34.999      2.713 
 11909.000     35.207      2.718 
 11909.500     35.634      2.725 
 11910.000     36.948      2.733 
 11910.500     39.625      2.732 
 11911.000     40.023      2.717 
 11911.500     41.765      2.717 
 11912.000     43.546      2.723 
 11912.500     45.431      2.735 
 11913.000     45.871      2.734 
 11913.500     46.059      2.736 
 11914.000     46.855      2.746 
 11914.500     48.098      2.765 
 11915.000     48.606      2.766 
 11915.500     49.177      2.764 
 11916.000     48.120      2.752 
 11916.500     46.330      2.738 
 11917.000     45.172      2.736 
 11917.500     43.314      2.737 
 11918.000     41.933      2.740 
 11918.500     40.675      2.742 
 11919.000     40.486      2.741 
 11919.500     40.841      2.732 
 11920.000     41.641      2.719 
 11920.500     43.762      2.710 
 11921.000     45.146      2.717 
 11921.500     46.056      2.727 
 11922.000     46.640      2.730 
 11922.500     45.701      2.715 
 11923.000     46.517      2.709 
 11923.500     47.207      2.708 
 11924.000     48.123      2.715 
 11924.500     48.287      2.727 
 11925.000     49.038      2.741 
 11925.500     49.110      2.736 
 11926.000     50.032      2.729 
 11926.500     50.861      2.722 
 11927.000     50.739      2.724 
 11927.500     50.693      2.723 
 11928.000     49.839      2.719 
 11928.500     50.413      2.708 
 11929.000     51.255      2.703 
 11929.500     52.800      2.695 
 11930.000     55.664      2.696 
 11930.500     58.632      2.704 
 11931.000     61.039      2.713 
 11931.500     60.470      2.715 
 11932.000     60.321      2.716 
 11932.500     57.464      2.717 
 11933.000     56.667      2.715 
 11933.500     55.261      2.713 
 11934.000     54.229      2.705 
 11934.500     47.198      2.705 
 11935.000     41.199      2.707 
 11935.500     35.192      2.714 
 11936.000     33.941      2.721 
 11936.500     35.438      2.727 
 11937.000     40.285      2.730 
 11937.500     41.649      2.733 
 11938.000     43.109      2.733 
 11938.500     44.558      2.733 
 11939.000     45.799      2.731 
 11939.500     48.055      2.729 
 11940.000     51.944      2.726 
 11940.500     54.024      2.722 
 11941.000     54.894      2.720 
 11941.500     56.017      2.717 
 11942.000     58.712      2.714 
 11942.500     63.502      2.712 
 11943.000     67.020      2.713 
 11943.500     66.984      2.713 
 11944.000     63.247      2.710 
 11944.500     51.198      2.707 
 11945.000     48.014      2.708 
 11945.500     43.407      2.715 
 11946.000     43.428      2.724 
 11946.500     43.558      2.732 
 11947.000     43.498      2.734 
 11947.500     42.930      2.734 
 11948.000     43.053      2.733 
 11948.500     45.637      2.733 
 11949.000     47.468      2.732 
 11949.500     51.177      2.724 
 11950.000     58.387      2.701 
 11950.500     63.418      2.677 
 11951.000     61.267      2.682 
 11951.500     57.126      2.701 
 11952.000     51.462      2.715 
 11952.500     43.353      2.728 
 11953.000     39.503      2.735 
 11953.500     35.396      2.741 
 11954.000     31.572      2.751 
 11954.500     28.016      2.754 
 11955.000     26.387      2.752 
 11955.500     26.266      2.751 
 11956.000     25.928      2.750 
 11956.500     28.951      2.752 
 11957.000     30.848      2.753 
 11957.500     35.076      2.743 
 11958.000     38.476      2.736 
 11958.500     42.211      2.732 
 11959.000     44.281      2.733 
 11959.500     49.896      2.729 
 11960.000     53.241      2.728 
 11960.500     59.570      2.716 
 11961.000     64.258      2.710 
 11961.500     68.443      2.710 
 11962.000     70.584      2.709 
 11962.500     72.804      2.707 
 11963.000     72.470      2.705 
 11963.500     70.592      2.701 
 11964.000     68.046      2.690 
 11964.500     65.346      2.685 
 11965.000     64.672      2.690 
 11965.500     66.702      2.701 
 11966.000     67.897      2.705 
 11966.500     72.105      2.707 
 11967.000     74.266      2.703 
 11967.500     83.761      2.703 
 11968.000     90.316      2.702 
 11968.500    102.582      2.700 
 11969.000    113.780      2.701 
 11969.500    122.384      2.706 
 11970.000    121.574      2.706 
 11970.500    121.329      2.703 
 11971.000    120.566      2.698 
 11971.500    120.964      2.695 
 11972.000    121.804      2.693 
 11972.500    121.775      2.693 
 11973.000    120.514      2.695 
 11973.500    121.025      2.701 
 11974.000    124.393      2.703 
 11974.500    128.373      2.695 
 11975.000    128.521      2.675 
 11975.500    124.527      2.659 
 11976.000    119.902      2.657 
 11976.500    109.976      2.663 
 11977.000    108.431      2.671 
 11977.500    110.943      2.678 
 11978.000    120.131      2.682 
 11978.500    126.476      2.691 
 11979.000    127.517      2.697 
 11979.500    130.343      2.705 
 11980.000    133.229      2.711 
 11980.500    136.732      2.709 
 11981.000    139.285      2.704 
 11981.500    139.889      2.690 
 11982.000    151.706      2.675 
 11982.500    149.537      2.659 
 11983.000    148.138      2.663 
 11983.500    145.989      2.665 
