~Version Information Block
 VERS.                2.00:     CWLS LOG ASCII STANDARD - VERSION 2.000000
 WRAP.                  NO:     One Line Per Depth Step
#
~Well Information Block
#MNEM.UNIT                     Data                         Information
#----------   ------------------------------------------   ----------------
 STRT.FT                                     5300.0000:
 STOP.FT                                    10450.0000:
 STEP.FT                                        0.5000:
 NULL.                                       -999.2500:
 COMP.                                                :     COMPANY
 WELL.                                                :     WELL
 FLD .                                                :     FIELD
 CNTY.                                                :     COUNTY
 STAT.                                                :     STATE
 CTRY.                                                :     COUNTRY
 SRVC.                                                :     SERVICE COMPANY
 DATE.                                                :     DATE
 API .                                                :     API NUMBER
 UWI .                                                :     UWI NUMBER
#
~Curve Information Block
#MNEM.UNIT       API CODE      Curve Description
#----------    -------------   -------------------
 DEPT.FT                   :   Depth in Feet
 GR  .GAPI                 :   Gamma Ray
 RHOB.G/C3                 :   Bulk Density
#
~A  DEPTH         GR       RHOB  
# ...
  8014.000     49.284      2.784 
  8014.500     46.600      2.765 
  8015.000     33.720      2.777 
  8015.500     28.502      2.804 
  8016.000     22.584      2.809 
  8016.500     23.649      2.829 
  8017.000     26.150      2.833 
  8017.500     28.222      2.833 
  8018.000     30.583      2.828 
  8018.500     32.293      2.815 
  8019.000     34.017      2.799 
  8019.500     41.363      2.792 
  8020.000     48.468      2.782 
  8020.500     55.982      2.775 
  8021.000     58.322      2.770 
  8021.500     57.810      2.769 
  8022.000     52.846      2.768 
  8022.500     48.254      2.786 
  8023.000     41.116      2.798 
  8023.500     33.942      2.807 
  8024.000     34.927      2.803 
  8024.500     42.480      2.787 
  8025.000     51.393      2.768 
  8025.500     61.327      2.757 
  8026.000     64.568      2.730 
  8026.500     49.316      2.746 
  8027.000     40.889      2.762 
  8027.500     33.724      2.792 
  8028.000     29.407      2.815 
  8028.500     22.948      2.823 
  8029.000     23.756      2.826 
  8029.500     24.070      2.811 
  8030.000     28.419      2.800 
  8030.500     31.364      2.798 
  8031.000     31.217      2.809 
  8031.500     27.607      2.830 
  8032.000     23.183      2.829 
  8032.500     21.171      2.817 
  8033.000     18.082      2.814 
  8033.500     17.211      2.821 
  8034.000     17.085      2.823 
  8034.500     16.942      2.824 
  8035.000     17.733      2.822 
  8035.500     17.829      2.825 
  8036.000     17.748      2.831 
  8036.500     16.823      2.829 
  8037.000     16.015      2.835 
  8037.500     15.502      2.842 
  8038.000     14.980      2.852 
  8038.500     15.557      2.866 
  8039.000     15.995      2.867 
  8039.500     18.758      2.865 
  8040.000     20.511      2.854 
  8040.500     21.681      2.818 
  8041.000     24.486      2.808 
  8041.500     24.695      2.803 
  8042.000     24.690      2.797 
  8042.500     21.877      2.802 
  8043.000     20.547      2.809 
  8043.500     18.484      2.817 
  8044.000     18.569      2.821 
  8044.500     19.513      2.815 
  8045.000     19.981      2.806 
  8045.500     20.845      2.797 
  8046.000     21.151      2.799 
  8046.500     22.504      2.808 
  8047.000     22.149      2.818 
  8047.500     21.951      2.822 
  8048.000     23.086      2.822 
  8048.500     22.999      2.820 
  8049.000     24.317      2.819 
  8049.500     26.320      2.816 
  8050.000     26.913      2.806 
  8050.500     27.628      2.790 
  8051.000     24.085      2.789 
  8051.500     21.241      2.790 
  8052.000     19.720      2.795 
  8052.500     20.818      2.808 
  8053.000     22.107      2.821 
  8053.500     24.601      2.839 
  8054.000     24.929      2.852 
  8054.500     25.621      2.848 
  8055.000     26.490      2.844 
  8055.500     25.849      2.827 
  8056.000     24.212      2.823 
  8056.500     21.954      2.815 
  8057.000     21.166      2.815 
  8057.500     19.526      2.816 
  8058.000     18.702      2.818 
  8058.500     17.172      2.826 
  8059.000     16.476      2.826 
  8059.500     16.095      2.821 
  8060.000     17.445      2.814 
  8060.500     18.702      2.802 
  8061.000     22.083      2.806 
  8061.500     27.382      2.807 
  8062.000     30.501      2.798 
  8062.500     33.593      2.793 
  8063.000     32.925      2.793 
  8063.500     30.058      2.798 
  8064.000     29.492      2.806 
  8064.500     32.326      2.815 
  8065.000     33.370      2.812 
  8065.500     34.533      2.808 
  8066.000     32.942      2.804 
  8066.500     31.234      2.800 
  8067.000     28.376      2.796 
  8067.500     25.826      2.793 
  8068.000     24.267      2.793 
  8068.500     21.826      2.810 
  8069.000     23.334      2.817 
  8069.500     24.453      2.815 
  8070.000     26.597      2.816 
  8070.500     26.306      2.801 
  8071.000     24.323      2.795 
  8071.500     24.071      2.790 
  8072.000     25.629      2.784 
  8072.500     27.428      2.794 
  8073.000     29.538      2.802 
  8073.500     30.597      2.804 
  8074.000     30.839      2.807 
  8074.500     30.091      2.812 
  8075.000     29.502      2.824 
  8075.500     27.864      2.840 
  8076.000     27.246      2.839 
  8076.500     26.000      2.838 
  8077.000     25.190      2.834 
  8077.500     24.760      2.830 
  8078.000     24.648      2.823 
  8078.500     26.086      2.802 
  8079.000     28.123      2.795 
  8079.500     30.369      2.788 
  8080.000     30.512      2.787 
  8080.500     30.042      2.788 
  8081.000     29.788      2.793 
  8081.500     31.647      2.798 
  8082.000     33.094      2.803 
  8082.500     34.399      2.797 
  8083.000     32.178      2.786 
  8083.500     28.031      2.786 
  8084.000     25.252      2.800 
  8084.500     21.753      2.811 
  8085.000     27.547      2.814 
  8085.500     30.801      2.813 
  8086.000     34.694      2.813 
  8086.500     38.825      2.814 
  8087.000     39.077      2.814 
  8087.500     40.165      2.812 
  8088.000     39.984      2.806 
  8088.500     42.947      2.793 
  8089.000     44.854      2.786 
  8089.500     44.268      2.782 
  8090.000     43.089      2.782 
  8090.500     38.064      2.786 
  8091.000     33.896      2.790 
  8091.500     29.012      2.792 
  8092.000     26.655      2.799 
  8092.500     25.870      2.804 
  8093.000     24.121      2.814 
  8093.500     23.300      2.816 
  8094.000     25.084      2.823 
  8094.500     30.121      2.828 
  8095.000     33.903      2.831 
  8095.500     34.511      2.827 
  8096.000     33.008      2.823 
  8096.500     30.785      2.820 
  8097.000     29.374      2.817 
  8097.500     28.141      2.816 
  8098.000     27.193      2.819 
  8098.500     25.465      2.831 
  8099.000     24.807      2.839 
  8099.500     23.914      2.843 
  8100.000     23.253      2.828 
  8100.500     23.013      2.814 
  8101.000     21.330      2.803 
  8101.500     22.434      2.803 
  8102.000     24.723      2.825 
  8102.500     32.156      2.839 
  8103.000     40.004      2.825 
  8103.500     41.365      2.777 
  8104.000     43.411      2.765 
  8104.500     36.271      2.772 
  8105.000     34.383      2.773 
  8105.500     39.196      2.763 
  8106.000     48.116      2.747 
  8106.500     53.057      2.747 
  8107.000     48.985      2.751 
  8107.500     38.178      2.768 
  8108.000     30.473      2.796 
  8108.500     20.597      2.807 
  8109.000     19.574      2.853 
  8109.500     19.582      2.848 
  8110.000     20.266      2.835 
  8110.500     20.194      2.816 
  8111.000     20.231      2.812 
  8111.500     20.135      2.812 
  8112.000     20.900      2.819 
  8112.500     20.971      2.828 
  8113.000     21.059      2.830 
  8113.500     21.243      2.818 
  8114.000     21.664      2.809 
  8114.500     23.837      2.801 
  8115.000     25.944      2.801 
  8115.500     28.372      2.797 
  8116.000     29.001      2.791 
  8116.500     28.480      2.791 
  8117.000     26.881      2.797 
  8117.500     24.164      2.812 
  8118.000     21.837      2.821 
  8118.500     19.525      2.820 
  8119.000     18.718      2.816 
  8119.500     19.725      2.816 
  8120.000     20.775      2.823 
  8120.500     24.122      2.816 
  8121.000     23.065      2.802 
  8121.500     20.509      2.789 
  8122.000     19.251      2.790 
  8122.500     18.611      2.795 
  8123.000     20.138      2.795 
  8123.500     21.154      2.794 
  8124.000     25.259      2.794 
  8124.500     30.443      2.788 
  8125.000     32.462      2.779 
  8125.500     33.968      2.776 
  8126.000     32.705      2.781 
  8126.500     29.512      2.791 
  8127.000     26.859      2.813 
  8127.500     26.770      2.820 
  8128.000     29.519      2.818 
  8128.500     33.222      2.815 
  8129.000     35.088      2.806 
  8129.500     34.529      2.809 
  8130.000     33.927      2.810 
  8130.500     33.325      2.814 
  8131.000     33.250      2.816 
  8131.500     32.954      2.814 
