~Version Information Block
 VERS.                2.00:     CWLS LOG ASCII STANDARD - VERSION 2.000000
 WRAP.                  NO:     One Line Per Depth Step
#
~Well Information Block
#MNEM.UNIT                     Data                         Information
#----------   ------------------------------------------   ----------------
 STRT.FT                                     5300.0000:
 STOP.FT                                    10450.0000:
 STEP.FT                                        0.5000:
 NULL.                                       -999.2500:
 COMP.                                                :     COMPANY
 WELL.                                                :     WELL
 FLD .                                                :     FIELD
 CNTY.                                                :     COUNTY
 STAT.                                                :     STATE
 CTRY.                                                :     COUNTRY
 SRVC.                                                :     SERVICE COMPANY
 DATE.                                                :     DATE
 API .                                                :     API NUMBER
 UWI .                                                :     UWI NUMBER
#
~Curve Information Block
#MNEM.UNIT       API CODE      Curve Description
#----------    -------------   -------------------
 DEPT.FT                   :   Depth in Feet
 GR  .GAPI                 :   Gamma Ray
 RHOB.G/C3                 :   Bulk Density
#
~A  DEPTH         GR       RHOB  
# ...
  8722.000     26.173      2.798 
  8722.500     23.523      2.798 
  8723.000     20.242      2.798 
  8723.500     19.358      2.805 
  8724.000     19.747      2.811 
  8724.500     21.990      2.820 
  8725.000     27.611      2.819 
  8725.500     32.225      2.813 
  8726.000     30.040      2.808 
  8726.500     26.773      2.806 
  8727.000     24.110      2.806 
  8727.500     22.409      2.808 
  8728.000     21.097      2.814 
  8728.500     21.860      2.813 
  8729.000     24.799      2.817 
  8729.500     24.894      2.816 
  8730.000     23.352      2.813 
  8730.500     22.536      2.811 
  8731.000     23.349      2.808 
  8731.500     24.883      2.816 
  8732.000     28.350      2.818 
  8732.500     31.697      2.816 
  8733.000     28.272      2.814 
  8733.500     23.418      2.809 
  8734.000     20.590      2.806 
  8734.500     19.689      2.789 
  8735.000     20.165      2.786 
  8735.500     19.657      2.794 
  8736.000     21.200      2.814 
  8736.500     23.426      2.813 
  8737.000     25.285      2.813 
  8737.500     23.377      2.835 
  8738.000     21.048      2.851 
  8738.500     16.708      2.828 
  8739.000     16.440      2.802 
  8739.500     16.447      2.795 
  8740.000     16.784      2.813 
  8740.500     16.924      2.828 
  8741.000     17.094      2.834 
  8741.500     17.321      2.835 
  8742.000     17.456      2.840 
  8742.500     17.702      2.844 
  8743.000     17.941      2.838 
  8743.500     17.647      2.827 
  8744.000     21.464      2.813 
  8744.500     25.170      2.814 
  8745.000     39.830      2.819 
  8745.500     44.314      2.817 
  8746.000     48.145      2.805 
  8746.500     43.396      2.799 
  8747.000     40.291      2.796 
  8747.500     33.339      2.809 
  8748.000     29.503      2.813 
  8748.500     25.941      2.815 
  8749.000     24.995      2.808 
  8749.500     24.582      2.808 
  8750.000     26.558      2.815 
  8750.500     29.207      2.827 
  8751.000     34.681      2.840 
  8751.500     39.568      2.849 
  8752.000     41.419      2.848 
  8752.500     41.210      2.834 
  8753.000     37.772      2.820 
  8753.500     33.101      2.814 
  8754.000     28.415      2.819 
  8754.500     23.486      2.833 
  8755.000     21.192      2.830 
  8755.500     20.101      2.821 
  8756.000     18.844      2.814 
  8756.500     15.888      2.813 
  8757.000     14.814      2.811 
  8757.500     14.942      2.805 
  8758.000     15.667      2.801 
  8758.500     16.306      2.813 
  8759.000     16.739      2.823 
  8759.500     18.128      2.842 
  8760.000     20.011      2.846 
  8760.500     21.127      2.851 
  8761.000     21.236      2.847 
  8761.500     22.324      2.844 
  8762.000     22.971      2.842 
  8762.500     21.752      2.850 
  8763.000     21.124      2.834 
  8763.500     19.992      2.815 
  8764.000     19.379      2.801 
  8764.500     19.504      2.798 
  8765.000     19.268      2.809 
  8765.500     18.496      2.816 
  8766.000     17.116      2.822 
  8766.500     16.044      2.829 
  8767.000     15.407      2.836 
  8767.500     15.507      2.842 
  8768.000     15.210      2.834 
  8768.500     14.740      2.811 
  8769.000     14.521      2.801 
  8769.500     15.939      2.794 
  8770.000     16.620      2.793 
  8770.500     17.516      2.797 
  8771.000     18.360      2.798 
  8771.500     18.859      2.798 
  8772.000     19.418      2.797 
  8772.500     20.110      2.801 
  8773.000     20.322      2.811 
  8773.500     21.688      2.814 
  8774.000     22.790      2.814 
  8774.500     23.347      2.810 
  8775.000     21.327      2.812 
  8775.500     19.716      2.812 
  8776.000     17.970      2.810 
  8776.500     19.276      2.802 
  8777.000     21.216      2.801 
  8777.500     24.880      2.807 
  8778.000     27.242      2.811 
  8778.500     28.053      2.812 
  8779.000     27.217      2.813 
  8779.500     26.536      2.821 
  8780.000     26.370      2.828 
  8780.500     30.058      2.831 
  8781.000     36.507      2.817 
  8781.500     42.353      2.804 
  8782.000     40.017      2.799 
  8782.500     38.858      2.801 
  8783.000     28.554      2.805 
  8783.500     23.507      2.816 
  8784.000     21.461      2.823 
  8784.500     26.840      2.822 
  8785.000     32.826      2.816 
  8785.500     34.965      2.813 
  8786.000     35.177      2.803 
  8786.500     33.132      2.798 
  8787.000     32.822      2.800 
  8787.500     32.694      2.811 
  8788.000     34.766      2.811 
  8788.500     36.564      2.812 
  8789.000     38.369      2.812 
  8789.500     39.969      2.810 
  8790.000     40.746      2.810 
  8790.500     39.488      2.812 
  8791.000     34.626      2.822 
  8791.500     32.619      2.824 
  8792.000     29.991      2.826 
  8792.500     26.892      2.819 
  8793.000     24.101      2.809 
  8793.500     22.575      2.804 
  8794.000     22.547      2.799 
  8794.500     21.494      2.807 
  8795.000     21.655      2.817 
  8795.500     24.216      2.837 
  8796.000     23.933      2.842 
  8796.500     27.882      2.833 
  8797.000     29.107      2.818 
  8797.500     29.801      2.805 
  8798.000     28.821      2.803 
  8798.500     30.458      2.811 
  8799.000     32.623      2.818 
  8799.500     33.889      2.826 
  8800.000     33.221      2.828 
  8800.500     31.340      2.829 
  8801.000     29.382      2.831 
  8801.500     29.116      2.832 
  8802.000     29.695      2.828 
  8802.500     28.811      2.821 
  8803.000     28.810      2.809 
  8803.500     29.237      2.799 
  8804.000     30.690      2.798 
  8804.500     31.213      2.802 
  8805.000     32.954      2.805 
  8805.500     34.432      2.806 
  8806.000     34.411      2.806 
  8806.500     32.956      2.799 
  8807.000     31.272      2.791 
  8807.500     30.498      2.786 
  8808.000     31.323      2.785 
  8808.500     37.434      2.790 
  8809.000     39.867      2.792 
  8809.500     40.616      2.794 
  8810.000     38.484      2.796 
  8810.500     38.649      2.801 
  8811.000     37.716      2.806 
  8811.500     37.095      2.802 
  8812.000     36.153      2.793 
  8812.500     34.551      2.794 
  8813.000     32.876      2.798 
  8813.500     31.809      2.812 
  8814.000     30.232      2.819 
  8814.500     29.705      2.817 
  8815.000     29.962      2.807 
  8815.500     28.239      2.796 
  8816.000     27.344      2.803 
  8816.500     24.528      2.814 
  8817.000     22.830      2.823 
  8817.500     23.996      2.830 
  8818.000     25.025      2.835 
  8818.500     25.336      2.827 
  8819.000     24.297      2.825 
  8819.500     22.602      2.833 
  8820.000     21.663      2.836 
  8820.500     20.593      2.840 
  8821.000     19.318      2.831 
  8821.500     19.678      2.828 
  8822.000     19.450      2.825 
  8822.500     19.533      2.818 
  8823.000     22.050      2.808 
  8823.500     24.244      2.795 
  8824.000     26.552      2.792 
  8824.500     27.663      2.794 
  8825.000     27.732      2.801 
  8825.500     26.610      2.812 
  8826.000     26.700      2.818 
  8826.500     23.782      2.822 
  8827.000     22.819      2.820 
  8827.500     20.343      2.807 
  8828.000     18.593      2.804 
  8828.500     20.086      2.807 
  8829.000     21.034      2.838 
  8829.500     21.053      2.845 
  8830.000     21.097      2.836 
  8830.500     22.612      2.816 
  8831.000     24.744      2.806 
  8831.500     26.807      2.804 
  8832.000     31.538      2.806 
  8832.500     38.440      2.800 
  8833.000     40.799      2.797 
  8833.500     40.972      2.794 
  8834.000     40.370      2.790 
  8834.500     36.541      2.784 
  8835.000     35.161      2.769 
  8835.500     34.154      2.768 
  8836.000     33.916      2.776 
  8836.500     30.102      2.793 
  8837.000     28.323      2.804 
  8837.500     23.614      2.811 
  8838.000     22.631      2.815 
  8838.500     22.498      2.816 
  8839.000     23.240      2.818 
  8839.500     25.073      2.819 
