~Version Information Block
 VERS.                2.00:     CWLS LOG ASCII STANDARD - VERSION 2.000000
 WRAP.                  NO:     One Line Per Depth Step
#
~Well Information Block
#MNEM.UNIT                     Data                         Information
#----------   ------------------------------------------   ----------------
 STRT.FT                                    10450.0000:
 STOP.FT                                    16050.0000:
 STEP.FT                                        0.5000:
 NULL.                                       -999.2500:
 COMP.                                                :     COMPANY
 WELL.                                                :     WELL
 FLD .                                                :     FIELD
 CNTY.                                                :     COUNTY
 STAT.                                                :     STATE
 CTRY.                                                :     COUNTRY
 SRVC.                                                :     SERVICE COMPANY
 DATE.                                                :     DATE
 API .                                                :     API NUMBER
 UWI .                                                :     UWI NUMBER
#
~Curve Information Block
#MNEM.UNIT       API CODE      Curve Description
#----------    -------------   -------------------
 DEPT.FT                   :   Depth in Feet
 GR  .GAPI                 :   Gamma Ray
 RHOB.G/C3                 :   Bulk Density
#
~A  DEPTH         GR       RHOB  
# ...
 14108.000    111.174      2.736 
 14108.500    108.369      2.743 
 14109.000    106.936      2.752 
 14109.500    106.585      2.743 
 14110.000    100.999      2.734 
 14110.500     90.992      2.745 
 14111.000     81.607      2.770 
 14111.500     72.744      2.803 
 14112.000     67.688      2.818 
 14112.500     64.815      2.804 
 14113.000     63.882      2.796 
 14113.500     61.995      2.795 
 14114.000     60.489      2.802 
 14114.500     59.901      2.814 
 14115.000     60.204      2.815 
 14115.500     60.311      2.816 
 14116.000     64.939      2.789 
 14116.500     73.375      2.756 
 14117.000     74.112      2.750 
 14117.500     73.444      2.753 
 14118.000     71.864      2.763 
 14118.500     71.685      2.784 
 14119.000     71.896      2.786 
 14119.500     73.671      2.784 
 14120.000     74.250      2.784 
 14120.500     77.375      2.784 
 14121.000     81.080      2.778 
 14121.500     82.399      2.770 
 14122.000     86.495      2.770 
 14122.500     92.369      2.773 
 14123.000     98.351      2.778 
 14123.500    106.937      2.780 
 14124.000    116.975      2.783 
 14124.500    129.422      2.762 
 14125.000    132.685      2.744 
 14125.500    130.881      2.728 
 14126.000    126.637      2.727 
 14126.500    118.774      2.735 
 14127.000     93.785      2.745 
 14127.500     61.301      2.759 
 14128.000     50.322      2.799 
 14128.500     31.698      2.842 
 14129.000     24.828      2.857 
 14129.500     22.551      2.867 
 14130.000     21.285      2.870 
 14130.500     18.884      2.870 
 14131.000     17.793      2.875 
 14131.500     16.738      2.881 
 14132.000     15.944      2.882 
 14132.500     15.166      2.878 
 14133.000     15.328      2.876 
 14133.500     17.729      2.879 
 14134.000     19.297      2.880 
 14134.500     19.241      2.880 
 14135.000     19.226      2.860 
 14135.500     18.446      2.845 
 14136.000     17.940      2.842 
 14136.500     18.824      2.854 
 14137.000     19.524      2.870 
 14137.500     19.537      2.872 
 14138.000     19.864      2.866 
 14138.500     19.757      2.841 
 14139.000     19.959      2.834 
 14139.500     20.639      2.838 
 14140.000     20.840      2.840 
 14140.500     20.173      2.850 
 14141.000     19.980      2.856 
 14141.500     20.032      2.862 
 14142.000     19.856      2.871 
 14142.500     18.768      2.885 
 14143.000     18.323      2.886 
 14143.500     19.266      2.884 
 14144.000     19.834      2.880 
 14144.500     19.974      2.881 
 14145.000     20.051      2.879 
 14145.500     19.944      2.876 
 14146.000     20.078      2.864 
 14146.500     19.420      2.853 
 14147.000     19.116      2.845 
 14147.500     19.826      2.834 
 14148.000     20.243      2.840 
 14148.500     20.199      2.856 
 14149.000     19.990      2.861 
 14149.500     17.660      2.893 
 14150.000     16.764      2.899 
 14150.500     14.845      2.900 
 14151.000     15.169      2.883 
 14151.500     15.361      2.874 
 14152.000     16.828      2.865 
 14152.500     19.060      2.854 
 14153.000     20.044      2.859 
 14153.500     20.940      2.870 
 14154.000     24.698      2.881 
 14154.500     26.272      2.880 
 14155.000     27.229      2.869 
 14155.500     26.259      2.870 
 14156.000     25.327      2.874 
 14156.500     25.713      2.872 
 14157.000     26.563      2.868 
 14157.500     30.160      2.855 
 14158.000     31.768      2.850 
 14158.500     34.710      2.852 
 14159.000     38.267      2.855 
 14159.500     45.899      2.861 
 14160.000     57.941      2.858 
 14160.500     61.906      2.847 
 14161.000     82.800      2.821 
 14161.500     90.166      2.808 
 14162.000     93.484      2.795 
 14162.500     95.512      2.783 
 14163.000    100.794      2.768 
 14163.500    115.613      2.766 
 14164.000    126.932      2.797 
 14164.500    138.256      2.843 
 14165.000    149.108      2.908 
 14165.500    153.526      2.857 
 14166.000    158.037      2.837 
 14166.500    163.507      2.793 
 14167.000    158.249      2.828 
 14167.500    148.069      2.794 
 14168.000    149.643      2.770 
 14168.500    137.264      2.727 
 14169.000    123.827      2.713 
 14169.500    107.320      2.721 
 14170.000     89.838      2.729 
 14170.500     83.540      2.764 
 14171.000     93.079      2.801 
 14171.500    103.689      2.835 
 14172.000    122.088      2.859 
 14172.500    134.317      2.873 
 14173.000    132.635      2.837 
 14173.500    116.140      2.801 
 14174.000    105.644      2.741 
 14174.500     75.870      2.705 
 14175.000     69.902      2.774 
 14175.500     68.478      2.816 
 14176.000     69.792      2.859 
 14176.500     68.849      2.911 
 14177.000     66.087      2.892 
 14177.500     64.839      2.837 
 14178.000     64.608      2.817 
 14178.500     63.107      2.764 
 14179.000     61.417      2.763 
 14179.500     59.053      2.798 
 14180.000     56.385      2.807 
 14180.500     54.151      2.809 
 14181.000     51.725      2.809 
 14181.500     49.969      2.809 
 14182.000     52.582      2.827 
 14182.500     55.762      2.835 
 14183.000     60.173      2.842 
 14183.500     62.965      2.838 
 14184.000     64.238      2.838 
 14184.500     61.749      2.844 
 14185.000     59.845      2.856 
 14185.500     60.012      2.848 
 14186.000     60.034      2.840 
 14186.500     59.044      2.838 
 14187.000     58.483      2.841 
 14187.500     54.037      2.843 
 14188.000     52.464      2.850 
 14188.500     53.093      2.861 
 14189.000     53.605      2.861 
 14189.500     52.871      2.854 
 14190.000     52.290      2.854 
 14190.500     51.695      2.852 
 14191.000     51.607      2.849 
 14191.500     55.668      2.847 
 14192.000     60.085      2.839 
 14192.500     63.106      2.825 
 14193.000     71.353      2.828 
 14193.500     82.916      2.837 
 14194.000    107.309      2.900 
 14194.500    117.396      2.881 
 14195.000    122.079      2.806 
 14195.500    129.010      2.741 
 14196.000    130.525      2.702 
 14196.500    131.604      2.742 
 14197.000    131.290      2.766 
 14197.500    132.088      2.820 
 14198.000    132.282      2.827 
 14198.500    134.478      2.763 
 14199.000    134.433      2.731 
 14199.500    134.484      2.728 
 14200.000    133.710      2.742 
 14200.500    132.954      2.793 
 14201.000    133.433      2.805 
 14201.500    134.260      2.822 
 14202.000    134.935      2.841 
 14202.500    135.737      2.824 
 14203.000    145.938      2.761 
 14203.500    150.843      2.751 
 14204.000    160.388      2.752 
 14204.500    164.947      2.749 
 14205.000    165.702      2.727 
 14205.500    162.412      2.617 
 14206.000    150.467      2.637 
 14206.500    117.397      2.705 
 14207.000    105.784      2.744 
 14207.500    102.638      2.811 
 14208.000     86.210      2.847 
 14208.500     73.992      2.871 
 14209.000     71.856      2.876 
 14209.500     72.174      2.896 
 14210.000     82.861      2.901 
 14210.500     89.467      2.864 
 14211.000     94.672      2.828 
 14211.500    106.034      2.800 
 14212.000    109.886      2.742 
 14212.500    114.320      2.674 
 14213.000    117.062      2.671 
 14213.500    117.592      2.701 
 14214.000    124.552      2.749 
 14214.500    126.399      2.743 
 14215.000    129.900      2.743 
 14215.500    131.951      2.745 
 14216.000    140.891      2.772 
 14216.500    144.725      2.780 
 14217.000    151.968      2.783 
 14217.500    155.630      2.780 
 14218.000    158.504      2.780 
 14218.500    159.960      2.781 
 14219.000    153.974      2.785 
 14219.500    152.663      2.763 
 14220.000    116.146      2.752 
 14220.500     86.750      2.796 
 14221.000     79.779      2.809 
 14221.500     74.244      2.827 
 14222.000     64.045      2.831 
 14222.500     59.564      2.840 
 14223.000     55.523      2.850 
 14223.500     55.194      2.851 
 14224.000     55.777      2.868 
 14224.500     57.292      2.880 
 14225.000     65.247      2.875 
 14225.500     69.646      2.867 
