~Version Information Block
 VERS.                2.00:     CWLS LOG ASCII STANDARD - VERSION 2.000000
 WRAP.                  NO:     One Line Per Depth Step
#
~Well Information Block
#MNEM.UNIT                     Data                         Information
#----------   ------------------------------------------   ----------------
 STRT.FT                                    10450.0000:
 STOP.FT                                    16050.0000:
 STEP.FT                                        0.5000:
 NULL.                                       -999.2500:
 COMP.                                                :     COMPANY
 WELL.                                                :     WELL
 FLD .                                                :     FIELD
 CNTY.                                                :     COUNTY
 STAT.                                                :     STATE
 CTRY.                                                :     COUNTRY
 SRVC.                                                :     SERVICE COMPANY
 DATE.                                                :     DATE
 API .                                                :     API NUMBER
 UWI .                                                :     UWI NUMBER
#
~Curve Information Block
#MNEM.UNIT       API CODE      Curve Description
#----------    -------------   -------------------
 DEPT.FT                   :   Depth in Feet
 GR  .GAPI                 :   Gamma Ray
 RHOB.G/C3                 :   Bulk Density
#
~A  DEPTH         GR       RHOB  
# ...
 12574.000     60.840      2.731 
 12574.500     60.652      2.729 
 12575.000     60.827      2.724 
 12575.500     64.638      2.716 
 12576.000     73.496      2.714 
 12576.500     73.731      2.712 
 12577.000     71.836      2.713 
 12577.500     67.645      2.715 
 12578.000     66.156      2.718 
 12578.500     66.661      2.727 
 12579.000     70.275      2.742 
 12579.500     73.132      2.752 
 12580.000     73.364      2.751 
 12580.500     73.907      2.688 
 12581.000     74.920      2.693 
 12581.500     76.426      2.695 
 12582.000     77.559      2.704 
 12582.500     74.479      2.702 
 12583.000     67.382      2.683 
 12583.500     53.450      2.670 
 12584.000     41.507      2.674 
 12584.500     30.365      2.693 
 12585.000     27.302      2.711 
 12585.500     28.288      2.719 
 12586.000     31.027      2.726 
 12586.500     34.972      2.726 
 12587.000     37.655      2.733 
 12587.500     39.545      2.734 
 12588.000     40.118      2.739 
 12588.500     40.489      2.736 
 12589.000     39.917      2.734 
 12589.500     38.283      2.727 
 12590.000     38.223      2.726 
 12590.500     37.363      2.730 
 12591.000     36.199      2.737 
 12591.500     35.733      2.739 
 12592.000     37.392      2.737 
 12592.500     40.597      2.731 
 12593.000     45.367      2.727 
 12593.500     49.708      2.727 
 12594.000     54.787      2.730 
 12594.500     56.530      2.728 
 12595.000     56.327      2.721 
 12595.500     53.664      2.713 
 12596.000     51.937      2.707 
 12596.500     52.784      2.721 
 12597.000     54.445      2.729 
 12597.500     58.821      2.736 
 12598.000     60.945      2.737 
 12598.500     62.143      2.732 
 12599.000     62.420      2.722 
 12599.500     62.440      2.716 
 12600.000     63.038      2.716 
 12600.500     59.056      2.723 
 12601.000     56.551      2.731 
 12601.500     51.906      2.736 
 12602.000     50.637      2.737 
 12602.500     48.486      2.731 
 12603.000     47.689      2.723 
 12603.500     46.773      2.715 
 12604.000     46.647      2.712 
 12604.500     46.551      2.715 
 12605.000     45.661      2.720 
 12605.500     46.621      2.725 
 12606.000     46.263      2.721 
 12606.500     47.876      2.715 
 12607.000     47.545      2.709 
 12607.500     47.437      2.707 
 12608.000     47.617      2.707 
 12608.500     48.219      2.707 
 12609.000     48.879      2.708 
 12609.500     51.130      2.708 
 12610.000     53.311      2.701 
 12610.500     57.501      2.695 
 12611.000     60.204      2.692 
 12611.500     61.658      2.693 
 12612.000     61.029      2.702 
 12612.500     66.669      2.706 
 12613.000     69.839      2.706 
 12613.500     78.522      2.704 
 12614.000     82.854      2.697 
 12614.500     92.475      2.694 
 12615.000    105.197      2.717 
 12615.500    107.134      2.733 
 12616.000    111.359      2.738 
 12616.500    109.501      2.724 
 12617.000    103.886      2.685 
 12617.500    100.441      2.662 
 12618.000     96.909      2.656 
 12618.500     82.285      2.671 
 12619.000     75.328      2.687 
 12619.500     72.914      2.709 
 12620.000     74.519      2.727 
 12620.500     78.242      2.737 
 12621.000     83.370      2.713 
 12621.500     88.457      2.696 
 12622.000     94.315      2.668 
 12622.500    101.224      2.636 
 12623.000    105.820      2.614 
 12623.500    109.336      2.586 
 12624.000    104.108      2.567 
 12624.500     96.661      2.510 
 12625.000     77.753      2.459 
 12625.500     55.599      2.471 
 12626.000     43.703      2.503 
 12626.500     37.099      2.631 
 12627.000     35.706      2.691 
 12627.500     34.652      2.736 
 12628.000     32.073      2.786 
 12628.500     26.298      2.823 
 12629.000     22.841      2.845 
 12629.500     23.127      2.856 
 12630.000     30.486      2.858 
 12630.500     34.523      2.842 
 12631.000     46.113      2.839 
 12631.500     42.931      2.815 
 12632.000     70.021      2.800 
 12632.500     69.168      2.780 
 12633.000     64.661      2.775 
 12633.500     60.609      2.776 
 12634.000     60.443      2.790 
 12634.500     65.803      2.808 
 12635.000     69.062      2.801 
 12635.500     75.204      2.789 
 12636.000     75.582      2.773 
 12636.500     75.623      2.761 
 12637.000     75.796      2.747 
 12637.500     77.449      2.730 
 12638.000     82.741      2.719 
 12638.500     92.292      2.708 
 12639.000    104.762      2.707 
 12639.500    122.658      2.709 
 12640.000    129.723      2.714 
 12640.500    135.984      2.722 
 12641.000    140.363      2.731 
 12641.500    141.647      2.744 
 12642.000    143.666      2.744 
 12642.500    147.328      2.735 
 12643.000    148.176      2.731 
 12643.500    147.929      2.734 
 12644.000    145.804      2.741 
 12644.500    140.653      2.741 
 12645.000    139.203      2.740 
 12645.500    140.166      2.742 
 12646.000    142.416      2.734 
 12646.500    140.966      2.706 
 12647.000    136.316      2.699 
 12647.500    130.983      2.700 
 12648.000    130.938      2.708 
 12648.500    131.454      2.719 
 12649.000    131.207      2.718 
 12649.500    132.191      2.714 
 12650.000    118.866      2.721 
 12650.500     97.171      2.741 
 12651.000     76.886      2.772 
 12651.500     56.386      2.779 
 12652.000     45.014      2.799 
 12652.500     28.562      2.816 
 12653.000     25.745      2.832 
 12653.500     24.434      2.838 
 12654.000     23.958      2.849 
 12654.500     39.797      2.894 
 12655.000     44.483      2.919 
 12655.500     64.774      2.907 
 12656.000     77.927      2.896 
 12656.500     96.453      2.836 
 12657.000    102.322      2.790 
 12657.500    112.486      2.771 
 12658.000    118.119      2.765 
 12658.500    129.722      2.754 
 12659.000    140.451      2.737 
 12659.500    140.293      2.730 
 12660.000    120.979      2.709 
 12660.500     93.752      2.716 
 12661.000     65.674      2.764 
 12661.500     38.008      2.799 
 12662.000     19.681      2.836 
 12662.500     19.964      2.899 
 12663.000     24.699      2.919 
 12663.500     36.773      2.927 
 12664.000     48.061      2.918 
 12664.500     76.301      2.876 
 12665.000     85.051      2.850 
 12665.500     89.512      2.830 
 12666.000     96.867      2.817 
 12666.500     99.452      2.806 
 12667.000     97.014      2.804 
 12667.500     95.579      2.800 
 12668.000    102.627      2.796 
 12668.500    108.076      2.779 
 12669.000    111.057      2.764 
 12669.500    113.148      2.754 
 12670.000    106.611      2.748 
 12670.500     87.385      2.753 
 12671.000     69.719      2.765 
 12671.500     47.143      2.781 
 12672.000     42.211      2.802 
 12672.500     38.114      2.831 
 12673.000     41.565      2.832 
 12673.500     49.999      2.826 
 12674.000     86.484      2.823 
 12674.500    109.145      2.818 
 12675.000    134.185      2.795 
 12675.500    141.740      2.738 
 12676.000    145.230      2.701 
 12676.500    149.069      2.706 
 12677.000    159.806      2.728 
 12677.500    168.700      2.773 
 12678.000    174.507      2.755 
 12678.500    174.364      2.682 
 12679.000    170.564      2.612 
 12679.500    167.150      2.564 
 12680.000    165.807      2.519 
 12680.500    163.346      2.529 
 12681.000    160.996      2.538 
 12681.500    160.223      2.558 
 12682.000    160.395      2.569 
 12682.500    160.346      2.613 
 12683.000    160.426      2.638 
 12683.500    158.917      2.678 
 12684.000    158.179      2.693 
 12684.500    158.864      2.711 
 12685.000    165.470      2.717 
 12685.500    168.399      2.717 
 12686.000    163.289      2.705 
 12686.500    155.505      2.688 
 12687.000    140.239      2.689 
 12687.500    129.918      2.697 
 12688.000    122.830      2.707 
 12688.500    115.655      2.726 
 12689.000    114.590      2.735 
 12689.500    111.368      2.750 
 12690.000    105.722      2.753 
 12690.500     94.242      2.767 
 12691.000     84.415      2.775 
 12691.500     77.431      2.781 
