~Version Information Block
 VERS.                2.00:     CWLS LOG ASCII STANDARD - VERSION 2.000000
 WRAP.                  NO:     One Line Per Depth Step
#
~Well Information Block
#MNEM.UNIT                     Data                         Information
#----------   ------------------------------------------   ----------------
 STRT.FT                                     5300.0000:
 STOP.FT                                    10450.0000:
 STEP.FT                                        0.5000:
 NULL.                                       -999.2500:
 COMP.                                                :     COMPANY
 WELL.                                                :     WELL
 FLD .                                                :     FIELD
 CNTY.                                                :     COUNTY
 STAT.                                                :     STATE
 CTRY.                                                :     COUNTRY
 SRVC.                                                :     SERVICE COMPANY
 DATE.                                                :     DATE
 API .                                                :     API NUMBER
 UWI .                                                :     UWI NUMBER
#
~Curve Information Block
#MNEM.UNIT       API CODE      Curve Description
#----------    -------------   -------------------
 DEPT.FT                   :   Depth in Feet
 GR  .GAPI                 :   Gamma Ray
 RHOB.G/C3                 :   Bulk Density
#
~A  DEPTH         GR       RHOB  
# ...
 10020.000     15.836      2.830 
 10020.500     17.134      2.834 
 10021.000     17.339      2.841 
 10021.500     19.746      2.839 
 10022.000     27.189      2.829 
 10022.500     35.219      2.791 
 10023.000     38.611      2.770 
 10023.500     39.912      2.766 
 10024.000     37.187      2.773 
 10024.500     31.722      2.796 
 10025.000     23.818      2.810 
 10025.500     18.430      2.829 
 10026.000     16.839      2.837 
 10026.500     16.503      2.838 
 10027.000     16.575      2.843 
 10027.500     21.557      2.843 
 10028.000     25.057      2.846 
 10028.500     31.031      2.831 
 10029.000     31.842      2.818 
 10029.500     32.890      2.815 
 10030.000     32.702      2.814 
 10030.500     30.360      2.818 
 10031.000     27.551      2.818 
 10031.500     23.142      2.822 
 10032.000     20.052      2.821 
 10032.500     19.213      2.817 
 10033.000     18.678      2.813 
 10033.500     20.307      2.816 
 10034.000     20.810      2.823 
 10034.500     18.485      2.840 
 10035.000     17.335      2.843 
 10035.500     16.445      2.844 
 10036.000     21.515      2.835 
 10036.500     30.021      2.813 
 10037.000     35.673      2.803 
 10037.500     36.048      2.791 
 10038.000     31.398      2.787 
 10038.500     23.159      2.795 
 10039.000     17.100      2.800 
 10039.500     18.932      2.810 
 10040.000     24.273      2.816 
 10040.500     35.493      2.821 
 10041.000     39.103      2.822 
 10041.500     42.370      2.815 
 10042.000     44.383      2.808 
 10042.500     47.581      2.797 
 10043.000     47.748      2.794 
 10043.500     45.298      2.797 
 10044.000     42.771      2.803 
 10044.500     28.355      2.831 
 10045.000     20.169      2.835 
 10045.500     17.399      2.829 
 10046.000     16.848      2.820 
 10046.500     20.325      2.820 
 10047.000     26.538      2.819 
 10047.500     33.564      2.806 
 10048.000     39.682      2.790 
 10048.500     38.465      2.778 
 10049.000     36.157      2.784 
 10049.500     32.064      2.793 
 10050.000     30.796      2.810 
 10050.500     30.816      2.832 
 10051.000     34.574      2.816 
 10051.500     36.346      2.808 
 10052.000     39.237      2.796 
 10052.500     35.506      2.804 
 10053.000     30.527      2.813 
 10053.500     28.103      2.821 
 10054.000     26.026      2.829 
 10054.500     28.474      2.810 
 10055.000     29.402      2.800 
 10055.500     28.981      2.794 
 10056.000     28.950      2.797 
 10056.500     29.461      2.798 
 10057.000     31.035      2.803 
 10057.500     31.345      2.809 
 10058.000     29.697      2.822 
 10058.500     28.683      2.838 
 10059.000     26.492      2.841 
 10059.500     25.063      2.843 
 10060.000     22.201      2.844 
 10060.500     16.372      2.825 
 10061.000     15.259      2.823 
 10061.500     14.493      2.817 
 10062.000     14.735      2.814 
 10062.500     21.500      2.823 
 10063.000     31.325      2.820 
 10063.500     38.253      2.816 
 10064.000     57.522      2.789 
 10064.500     93.293      2.744 
 10065.000     90.820      2.733 
 10065.500     84.216      2.743 
 10066.000     69.261      2.774 
 10066.500     29.455      2.790 
 10067.000     25.105      2.812 
 10067.500     21.101      2.821 
 10068.000     21.079      2.823 
 10068.500     21.060      2.820 
 10069.000     20.669      2.821 
 10069.500     20.100      2.824 
 10070.000     18.867      2.828 
 10070.500     19.755      2.836 
 10071.000     20.210      2.836 
 10071.500     22.598      2.829 
 10072.000     23.017      2.825 
 10072.500     39.785      2.820 
 10073.000     44.546      2.815 
 10073.500     46.558      2.799 
 10074.000     43.690      2.783 
 10074.500     34.739      2.777 
 10075.000     26.221      2.788 
 10075.500     21.292      2.815 
 10076.000     21.170      2.825 
 10076.500     24.417      2.831 
 10077.000     26.370      2.828 
 10077.500     27.055      2.817 
 10078.000     26.008      2.809 
 10078.500     22.244      2.810 
 10079.000     20.312      2.816 
 10079.500     17.851      2.829 
 10080.000     17.119      2.834 
 10080.500     19.519      2.837 
 10081.000     20.029      2.837 
 10081.500     24.019      2.831 
 10082.000     31.753      2.813 
 10082.500     38.520      2.799 
 10083.000     42.968      2.790 
 10083.500     51.857      2.781 
 10084.000     58.507      2.771 
 10084.500     68.280      2.760 
 10085.000     72.841      2.759 
 10085.500     82.209      2.757 
 10086.000     85.590      2.750 
 10086.500     87.625      2.735 
 10087.000     82.515      2.727 
 10087.500     78.087      2.725 
 10088.000     62.176      2.737 
 10088.500     49.787      2.755 
 10089.000     42.790      2.767 
 10089.500     32.368      2.774 
 10090.000     28.477      2.775 
 10090.500     30.301      2.777 
 10091.000     35.724      2.780 
 10091.500     41.122      2.786 
 10092.000     45.429      2.790 
 10092.500     52.471      2.782 
 10093.000     54.375      2.767 
 10093.500     59.609      2.753 
 10094.000     50.827      2.741 
 10094.500     46.201      2.755 
 10095.000     42.629      2.766 
 10095.500     41.543      2.771 
 10096.000     45.370      2.771 
 10096.500     52.815      2.760 
 10097.000     56.925      2.749 
 10097.500     59.137      2.748 
 10098.000     59.847      2.749 
 10098.500     52.505      2.767 
 10099.000     45.067      2.775 
 10099.500     40.683      2.784 
 10100.000     36.131      2.794 
 10100.500     29.334      2.801 
 10101.000     26.080      2.804 
 10101.500     24.380      2.798 
 10102.000     22.432      2.790 
 10102.500     20.250      2.790 
 10103.000     21.515      2.813 
 10103.500     25.484      2.823 
 10104.000     32.747      2.826 
 10104.500     37.189      2.826 
 10105.000     36.050      2.803 
 10105.500     32.656      2.809 
 10106.000     31.585      2.814 
 10106.500     39.128      2.793 
 10107.000     42.808      2.772 
 10107.500     63.420      2.753 
 10108.000     92.546      2.744 
 10108.500    101.376      2.725 
 10109.000    104.605      2.720 
 10109.500    104.096      2.702 
 10110.000    104.663      2.687 
 10110.500     97.677      2.682 
 10111.000     85.935      2.700 
 10111.500     80.236      2.716 
 10112.000     58.779      2.756 
 10112.500     50.502      2.776 
 10113.000     51.086      2.775 
 10113.500     55.707      2.770 
 10114.000     60.824      2.771 
 10114.500     60.974      2.767 
 10115.000     53.894      2.763 
 10115.500     42.954      2.773 
 10116.000     38.108      2.787 
 10116.500     28.254      2.818 
 10117.000     24.188      2.821 
 10117.500     21.552      2.822 
 10118.000     21.392      2.827 
 10118.500     24.405      2.829 
 10119.000     27.962      2.820 
 10119.500     29.580      2.797 
 10120.000     27.572      2.797 
 10120.500     24.146      2.803 
 10121.000     21.794      2.803 
 10121.500     20.864      2.800 
 10122.000     21.174      2.796 
 10122.500     23.223      2.804 
 10123.000     27.633      2.800 
 10123.500     28.842      2.789 
 10124.000     28.184      2.782 
 10124.500     24.131      2.791 
 10125.000     21.696      2.801 
 10125.500     21.400      2.797 
 10126.000     26.978      2.792 
 10126.500     35.494      2.778 
 10127.000     38.194      2.774 
 10127.500     35.549      2.778 
 10128.000     30.934      2.789 
 10128.500     26.913      2.811 
 10129.000     25.825      2.817 
 10129.500     24.265      2.821 
 10130.000     22.712      2.814 
 10130.500     22.347      2.802 
 10131.000     21.884      2.800 
 10131.500     23.544      2.798 
 10132.000     30.803      2.795 
 10132.500     36.096      2.784 
 10133.000     37.633      2.774 
 10133.500     33.673      2.771 
 10134.000     29.311      2.777 
 10134.500     26.014      2.804 
 10135.000     25.418      2.815 
 10135.500     27.546      2.814 
 10136.000     28.608      2.804 
 10136.500     33.009      2.793 
 10137.000     33.914      2.793 
 10137.500     32.217      2.798 
