~Version Information Block
 VERS.                2.00:     CWLS LOG ASCII STANDARD - VERSION 2.000000
 WRAP.                  NO:     One Line Per Depth Step
#
~Well Information Block
#MNEM.UNIT                     Data                         Information
#----------   ------------------------------------------   ----------------
 STRT.FT                                    10450.0000:
 STOP.FT                                    16050.0000:
 STEP.FT                                        0.5000:
 NULL.                                       -999.2500:
 COMP.                                                :     COMPANY
 WELL.                                                :     WELL
 FLD .                                                :     FIELD
 CNTY.                                                :     COUNTY
 STAT.                                                :     STATE
 CTRY.                                                :     COUNTRY
 SRVC.                                                :     SERVICE COMPANY
 DATE.                                                :     DATE
 API .                                                :     API NUMBER
 UWI .                                                :     UWI NUMBER
#
~Curve Information Block
#MNEM.UNIT       API CODE      Curve Description
#----------    -------------   -------------------
 DEPT.FT                   :   Depth in Feet
 GR  .GAPI                 :   Gamma Ray
 RHOB.G/C3                 :   Bulk Density
#
~A  DEPTH         GR       RHOB  
# ...
 14462.000     21.160      2.854 
 14462.500     24.454      2.858 
 14463.000     32.808      2.857 
 14463.500     44.551      2.853 
 14464.000     51.276      2.848 
 14464.500     68.241      2.836 
 14465.000     71.326      2.824 
 14465.500     70.648      2.808 
 14466.000     65.721      2.800 
 14466.500     58.710      2.785 
 14467.000     42.089      2.811 
 14467.500     36.558      2.834 
 14468.000     48.010      2.875 
 14468.500     57.694      2.866 
 14469.000     77.960      2.822 
 14469.500    114.187      2.791 
 14470.000    112.402      2.767 
 14470.500     98.892      2.783 
 14471.000     77.977      2.801 
 14471.500     61.205      2.827 
 14472.000     46.778      2.837 
 14472.500     39.012      2.857 
 14473.000     27.026      2.884 
 14473.500     28.169      2.931 
 14474.000     35.689      2.940 
 14474.500     61.669      2.923 
 14475.000     69.868      2.872 
 14475.500    118.637      2.819 
 14476.000    143.990      2.794 
 14476.500    160.176      2.748 
 14477.000    152.968      2.668 
 14477.500    155.156      2.641 
 14478.000    102.365      2.609 
 14478.500    111.794      2.666 
 14479.000     51.458      2.730 
 14479.500     43.848      2.786 
 14480.000     39.115      2.812 
 14480.500     42.557      2.863 
 14481.000     48.182      2.860 
 14481.500     78.025      2.843 
 14482.000     94.608      2.816 
 14482.500    139.436      2.737 
 14483.000    140.061      2.722 
 14483.500    130.796      2.710 
 14484.000    117.610      2.722 
 14484.500     84.431      2.751 
 14485.000     75.027      2.789 
 14485.500     68.147      2.790 
 14486.000     60.065      2.794 
 14486.500     54.357      2.800 
 14487.000     53.127      2.792 
 14487.500     60.467      2.790 
 14488.000     68.920      2.720 
 14488.500    107.132      2.646 
 14489.000    128.137      2.590 
 14489.500    152.941      2.564 
 14490.000    148.837      2.573 
 14490.500    138.311      2.590 
 14491.000    120.449      2.636 
 14491.500     86.381      2.697 
 14492.000     61.502      2.761 
 14492.500     42.449      2.805 
 14493.000     41.541      2.854 
 14493.500     40.584      2.858 
 14494.000     46.486      2.876 
 14494.500     76.745      2.871 
 14495.000    104.057      2.791 
 14495.500    119.872      2.773 
 14496.000    154.683      2.744 
 14496.500    152.829      2.715 
 14497.000    143.626      2.716 
 14497.500    107.969      2.723 
 14498.000    110.980      2.748 
 14498.500     75.267      2.782 
 14499.000     70.039      2.806 
 14499.500     57.918      2.815 
 14500.000     57.678      2.813 
 14500.500     72.100      2.801 
 14501.000     84.959      2.788 
 14501.500     82.989      2.783 
 14502.000    108.741      2.791 
 14502.500    119.211      2.758 
 14503.000    118.407      2.727 
 14503.500    115.883      2.725 
 14504.000    114.959      2.737 
 14504.500    116.241      2.753 
 14505.000    126.166      2.756 
 14505.500    133.173      2.757 
 14506.000    142.315      2.756 
 14506.500    153.449      2.755 
 14507.000    159.282      2.750 
 14507.500    166.777      2.746 
 14508.000    163.983      2.747 
 14508.500    151.669      2.741 
 14509.000    133.344      2.740 
 14509.500    110.821      2.751 
 14510.000     77.930      2.759 
 14510.500     23.668      2.845 
 14511.000     26.327      2.880 
 14511.500     24.068      2.913 
 14512.000     27.608      2.918 
 14512.500     36.656      2.899 
 14513.000     40.959      2.870 
 14513.500     43.459      2.837 
 14514.000     45.125      2.826 
 14514.500     45.137      2.822 
 14515.000     47.453      2.826 
 14515.500     50.166      2.834 
 14516.000     52.391      2.836 
 14516.500     48.901      2.826 
 14517.000     44.754      2.811 
 14517.500     35.098      2.810 
 14518.000     28.799      2.830 
 14518.500     29.196      2.864 
 14519.000     33.396      2.874 
 14519.500     54.224      2.859 
 14520.000     86.084      2.828 
 14520.500    117.419      2.738 
 14521.000    116.252      2.726 
 14521.500    108.490      2.745 
 14522.000     80.312      2.775 
 14522.500     59.226      2.808 
 14523.000     61.501      2.812 
 14523.500     58.296      2.806 
 14524.000     58.909      2.806 
 14524.500     60.065      2.814 
 14525.000     55.356      2.829 
 14525.500     50.882      2.834 
 14526.000     46.823      2.838 
 14526.500     39.081      2.851 
 14527.000     35.379      2.856 
 14527.500     33.542      2.850 
 14528.000     33.779      2.836 
 14528.500     40.555      2.830 
 14529.000     48.230      2.830 
 14529.500     61.962      2.834 
 14530.000     79.017      2.827 
 14530.500    118.855      2.810 
 14531.000    116.798      2.792 
 14531.500    118.372      2.787 
 14532.000     99.881      2.800 
 14532.500     66.063      2.816 
 14533.000     51.643      2.821 
 14533.500     42.186      2.818 
 14534.000     31.123      2.822 
 14534.500     29.212      2.856 
 14535.000     29.409      2.903 
 14535.500     33.516      2.898 
 14536.000     37.318      2.887 
 14536.500     43.818      2.855 
 14537.000     45.649      2.865 
 14537.500     47.548      2.876 
 14538.000     47.433      2.880 
 14538.500     45.853      2.859 
 14539.000     45.529      2.849 
 14539.500     44.626      2.835 
 14540.000     45.916      2.834 
 14540.500     56.906      2.829 
 14541.000     70.932      2.814 
 14541.500     78.352      2.799 
 14542.000     98.597      2.782 
 14542.500     90.103      2.791 
 14543.000     67.788      2.806 
 14543.500     70.820      2.836 
 14544.000     35.460      2.879 
 14544.500     33.520      2.907 
 14545.000     25.350      2.901 
 14545.500     28.069      2.872 
 14546.000     31.632      2.857 
 14546.500     35.442      2.848 
 14547.000     36.804      2.845 
 14547.500     39.811      2.836 
 14548.000     42.970      2.828 
 14548.500     45.459      2.814 
 14549.000     46.532      2.808 
 14549.500     46.629      2.804 
 14550.000     46.740      2.805 
 14550.500     46.629      2.809 
 14551.000     46.653      2.814 
 14551.500     45.977      2.819 
 14552.000     45.931      2.840 
 14552.500     47.933      2.858 
 14553.000     49.775      2.853 
 14553.500     53.225      2.836 
 14554.000     54.342      2.818 
 14554.500     45.987      2.818 
 14555.000     35.533      2.824 
 14555.500     26.802      2.848 
 14556.000     18.177      2.857 
 14556.500     15.208      2.905 
 14557.000     13.553      2.925 
 14557.500     14.591      2.948 
 14558.000     19.211      2.958 
 14558.500     31.938      2.932 
 14559.000     47.612      2.907 
 14559.500     66.437      2.863 
 14560.000     80.091      2.798 
 14560.500    101.386      2.767 
 14561.000     97.231      2.751 
 14561.500     74.059      2.759 
 14562.000     65.293      2.805 
 14562.500     58.827      2.814 
 14563.000     55.069      2.811 
 14563.500     55.515      2.802 
 14564.000     55.274      2.802 
 14564.500     56.799      2.801 
 14565.000     58.779      2.795 
 14565.500     59.896      2.793 
 14566.000     60.868      2.803 
 14566.500     56.063      2.822 
 14567.000     51.211      2.843 
 14567.500     44.968      2.843 
 14568.000     40.067      2.842 
 14568.500     39.227      2.841 
 14569.000     37.828      2.839 
 14569.500     36.525      2.838 
 14570.000     35.425      2.837 
 14570.500     34.356      2.835 
 14571.000     33.120      2.834 
 14571.500     32.739      2.833 
 14572.000     33.527      2.831 
 14572.500     39.880      2.823 
 14573.000     44.491      2.824 
 14573.500     55.108      2.829 
 14574.000     59.185      2.842 
 14574.500     64.868      2.851 
 14575.000     63.092      2.841 
 14575.500     95.738      2.818 
 14576.000    109.497      2.788 
 14576.500    113.811      2.749 
 14577.000    106.864      2.730 
 14577.500    105.132      2.732 
 14578.000     97.575      2.746 
 14578.500     90.954      2.760 
 14579.000     84.064      2.756 
 14579.500     77.177      2.758 
