~Version Information Block
 VERS.                2.00:     CWLS LOG ASCII STANDARD - VERSION 2.000000
 WRAP.                  NO:     One Line Per Depth Step
#
~Well Information Block
#MNEM.UNIT                     Data                         Information
#----------   ------------------------------------------   ----------------
 STRT.FT                                    10450.0000:
 STOP.FT                                    16050.0000:
 STEP.FT                                        0.5000:
 NULL.                                       -999.2500:
 COMP.                                                :     COMPANY
 WELL.                                                :     WELL
 FLD .                                                :     FIELD
 CNTY.                                                :     COUNTY
 STAT.                                                :     STATE
 CTRY.                                                :     COUNTRY
 SRVC.                                                :     SERVICE COMPANY
 DATE.                                                :     DATE
 API .                                                :     API NUMBER
 UWI .                                                :     UWI NUMBER
#
~Curve Information Block
#MNEM.UNIT       API CODE      Curve Description
#----------    -------------   -------------------
 DEPT.FT                   :   Depth in Feet
 GR  .GAPI                 :   Gamma Ray
 RHOB.G/C3                 :   Bulk Density
#
~A  DEPTH         GR       RHOB  
# ...
 11158.000     17.781      2.828 
 11158.500     16.006      2.834 
 11159.000     16.763      2.830 
 11159.500     19.041      2.821 
 11160.000     22.364      2.818 
 11160.500     25.131      2.811 
 11161.000     27.674      2.806 
 11161.500     29.358      2.809 
 11162.000     29.536      2.815 
 11162.500     28.453      2.831 
 11163.000     26.165      2.830 
 11163.500     21.619      2.823 
 11164.000     17.780      2.812 
 11164.500     13.310      2.810 
 11165.000     13.140      2.817 
 11165.500     13.714      2.833 
 11166.000     14.529      2.835 
 11166.500     14.434      2.832 
 11167.000     15.039      2.825 
 11167.500     15.932      2.821 
 11168.000     16.320      2.820 
 11168.500     17.181      2.820 
 11169.000     19.443      2.825 
 11169.500     20.226      2.829 
 11170.000     26.664      2.825 
 11170.500     38.378      2.814 
 11171.000     41.418      2.803 
 11171.500     48.625      2.801 
 11172.000     56.557      2.792 
 11172.500     57.583      2.779 
 11173.000     46.894      2.780 
 11173.500     37.112      2.800 
 11174.000     25.325      2.830 
 11174.500     20.385      2.893 
 11175.000     18.272      2.899 
 11175.500     18.264      2.880 
 11176.000     20.138      2.866 
 11176.500     26.865      2.832 
 11177.000     32.322      2.814 
 11177.500     41.375      2.802 
 11178.000     49.440      2.776 
 11178.500     46.761      2.760 
 11179.000     43.430      2.775 
 11179.500     39.059      2.786 
 11180.000     31.165      2.824 
 11180.500     21.041      2.832 
 11181.000     20.143      2.832 
 11181.500     13.373      2.828 
 11182.000     13.202      2.829 
 11182.500     11.394      2.833 
 11183.000     11.276      2.830 
 11183.500     12.035      2.830 
 11184.000     14.323      2.834 
 11184.500     15.972      2.834 
 11185.000     16.069      2.825 
 11185.500     15.391      2.822 
 11186.000     13.615      2.825 
 11186.500     12.609      2.849 
 11187.000     14.160      2.865 
 11187.500     15.746      2.874 
 11188.000     27.168      2.861 
 11188.500     33.619      2.823 
 11189.000     57.618      2.789 
 11189.500     55.502      2.766 
 11190.000     49.834      2.771 
 11190.500     40.872      2.802 
 11191.000     34.324      2.838 
 11191.500     31.299      2.842 
 11192.000     29.664      2.835 
 11192.500     26.237      2.820 
 11193.000     23.675      2.818 
 11193.500     21.462      2.824 
 11194.000     19.945      2.829 
 11194.500     21.430      2.841 
 11195.000     25.316      2.841 
 11195.500     34.934      2.831 
 11196.000     52.625      2.823 
 11196.500     74.780      2.798 
 11197.000     73.172      2.783 
 11197.500     59.638      2.765 
 11198.000     46.710      2.770 
 11198.500     25.872      2.791 
 11199.000     22.189      2.792 
 11199.500     19.060      2.794 
 11200.000     15.959      2.800 
 11200.500     13.599      2.816 
 11201.000     13.061      2.835 
 11201.500     12.686      2.835 
 11202.000     12.608      2.836 
 11202.500     15.072      2.816 
 11203.000     19.136      2.813 
 11203.500     23.779      2.815 
 11204.000     32.956      2.832 
 11204.500     42.992      2.837 
 11205.000     41.045      2.826 
 11205.500     39.335      2.822 
 11206.000     29.569      2.812 
 11206.500     18.014      2.817 
 11207.000     14.406      2.821 
 11207.500     13.533      2.822 
 11208.000     13.677      2.818 
 11208.500     14.913      2.822 
 11209.000     15.968      2.826 
 11209.500     18.909      2.831 
 11210.000     22.385      2.830 
 11210.500     23.756      2.836 
 11211.000     24.628      2.841 
 11211.500     20.891      2.845 
 11212.000     18.240      2.839 
 11212.500     14.475      2.813 
 11213.000     15.474      2.802 
 11213.500     18.001      2.782 
 11214.000     23.422      2.791 
 11214.500     32.586      2.794 
 11215.000     34.179      2.799 
 11215.500     30.593      2.791 
 11216.000     26.830      2.779 
 11216.500     15.798      2.770 
 11217.000     12.886      2.759 
 11217.500     11.618      2.762 
 11218.000     13.013      2.771 
 11218.500     14.355      2.776 
 11219.000     15.814      2.787 
 11219.500     16.891      2.780 
 11220.000     18.444      2.771 
 11220.500     24.137      2.754 
 11221.000     25.553      2.750 
 11221.500     28.605      2.756 
 11222.000     29.623      2.770 
 11222.500     33.951      2.801 
 11223.000     34.933      2.801 
 11223.500     37.086      2.794 
 11224.000     36.874      2.800 
 11224.500     34.276      2.805 
 11225.000     31.777      2.810 
 11225.500     27.223      2.816 
 11226.000     23.123      2.822 
 11226.500     19.492      2.848 
 11227.000     15.230      2.887 
 11227.500     13.836      2.920 
 11228.000     13.470      2.927 
 11228.500     14.143      2.916 
 11229.000     15.972      2.894 
 11229.500     16.824      2.892 
 11230.000     17.724      2.883 
 11230.500     17.876      2.905 
 11231.000     20.237      2.916 
 11231.500     22.396      2.878 
 11232.000     24.720      2.871 
 11232.500     23.301      2.826 
 11233.000     21.315      2.818 
 11233.500     16.485      2.819 
 11234.000     15.260      2.825 
 11234.500     13.062      2.834 
 11235.000     13.075      2.834 
 11235.500     14.500      2.834 
 11236.000     16.218      2.834 
 11236.500     19.849      2.834 
 11237.000     22.451      2.843 
 11237.500     27.676      2.855 
 11238.000     33.269      2.855 
 11238.500     38.353      2.846 
 11239.000     37.705      2.817 
 11239.500     36.726      2.817 
 11240.000     36.330      2.827 
 11240.500     42.528      2.830 
 11241.000     42.551      2.839 
 11241.500     43.612      2.837 
 11242.000     43.734      2.838 
 11242.500     44.173      2.827 
 11243.000     57.476      2.796 
 11243.500     71.348      2.766 
 11244.000     83.178      2.736 
 11244.500     72.110      2.741 
 11245.000     62.858      2.763 
 11245.500     52.351      2.778 
 11246.000     49.951      2.805 
 11246.500     39.065      2.816 
 11247.000     33.729      2.833 
 11247.500     22.666      2.853 
 11248.000     18.234      2.883 
 11248.500     18.569      2.887 
 11249.000     21.604      2.874 
 11249.500     24.567      2.865 
 11250.000     28.025      2.862 
 11250.500     35.866      2.858 
 11251.000     39.917      2.852 
 11251.500     39.959      2.848 
 11252.000     38.973      2.838 
 11252.500     25.367      2.858 
 11253.000     21.541      2.870 
 11253.500     18.207      2.880 
 11254.000     15.061      2.843 
 11254.500     11.556      2.826 
 11255.000     10.530      2.826 
 11255.500     12.381      2.837 
 11256.000     13.802      2.844 
 11256.500     14.345      2.854 
 11257.000     16.119      2.867 
 11257.500     15.354      2.864 
 11258.000     15.354      2.862 
 11258.500     13.113      2.833 
 11259.000     12.862      2.827 
 11259.500     12.025      2.841 
 11260.000     12.202      2.867 
 11260.500     12.154      2.861 
 11261.000     12.140      2.852 
 11261.500     12.156      2.844 
 11262.000     12.152      2.835 
 11262.500     12.155      2.894 
 11263.000     12.126      2.912 
 11263.500     12.167      2.919 
 11264.000     12.182      2.903 
 11264.500     13.665      2.847 
 11265.000     14.003      2.844 
 11265.500     15.318      2.826 
 11266.000     16.404      2.924 
 11266.500     20.718      2.915 
 11267.000     26.657      2.900 
 11267.500     38.264      2.897 
 11268.000     49.241      2.786 
 11268.500     56.003      2.799 
 11269.000     51.175      2.801 
 11269.500     41.766      2.813 
 11270.000     33.179      2.805 
 11270.500     25.207      2.833 
 11271.000     19.939      2.825 
 11271.500     20.028      2.825 
 11272.000     17.569      2.819 
 11272.500     15.406      2.820 
 11273.000     14.385      2.825 
 11273.500     14.233      2.833 
 11274.000     14.932      2.850 
 11274.500     17.448      2.847 
 11275.000     19.286      2.837 
 11275.500     20.653      2.817 
