~Version Information Block
 VERS.                2.00:     CWLS LOG ASCII STANDARD - VERSION 2.000000
 WRAP.                  NO:     One Line Per Depth Step
#
~Well Information Block
#MNEM.UNIT                     Data                         Information
#----------   ------------------------------------------   ----------------
 STRT.FT                                    10450.0000:
 STOP.FT                                    16050.0000:
 STEP.FT                                        0.5000:
 NULL.                                       -999.2500:
 COMP.                                                :     COMPANY
 WELL.                                                :     WELL
 FLD .                                                :     FIELD
 CNTY.                                                :     COUNTY
 STAT.                                                :     STATE
 CTRY.                                                :     COUNTRY
 SRVC.                                                :     SERVICE COMPANY
 DATE.                                                :     DATE
 API .                                                :     API NUMBER
 UWI .                                                :     UWI NUMBER
#
~Curve Information Block
#MNEM.UNIT       API CODE      Curve Description
#----------    -------------   -------------------
 DEPT.FT                   :   Depth in Feet
 GR  .GAPI                 :   Gamma Ray
 RHOB.G/C3                 :   Bulk Density
#
~A  DEPTH         GR       RHOB  
# ...
 14816.000     24.234      2.843 
 14816.500     22.124      2.831 
 14817.000     22.403      2.828 
 14817.500     22.264      2.825 
 14818.000     23.756      2.824 
 14818.500     26.712      2.829 
 14819.000     30.963      2.850 
 14819.500     33.584      2.861 
 14820.000     34.753      2.867 
 14820.500     33.011      2.854 
 14821.000     32.545      2.843 
 14821.500     32.961      2.840 
 14822.000     33.973      2.840 
 14822.500     29.176      2.843 
 14823.000     25.950      2.855 
 14823.500     20.740      2.864 
 14824.000     20.831      2.862 
 14824.500     19.909      2.846 
 14825.000     19.870      2.839 
 14825.500     20.692      2.839 
 14826.000     21.097      2.844 
 14826.500     24.522      2.850 
 14827.000     26.180      2.853 
 14827.500     27.804      2.854 
 14828.000     28.005      2.841 
 14828.500     28.097      2.829 
 14829.000     26.705      2.821 
 14829.500     26.342      2.827 
 14830.000     28.635      2.832 
 14830.500     31.798      2.835 
 14831.000     35.537      2.843 
 14831.500     40.650      2.851 
 14832.000     41.030      2.854 
 14832.500     42.059      2.839 
 14833.000     41.342      2.834 
 14833.500     40.635      2.831 
 14834.000     39.938      2.835 
 14834.500     37.748      2.837 
 14835.000     34.958      2.827 
 14835.500     33.737      2.817 
 14836.000     32.342      2.814 
 14836.500     33.365      2.823 
 14837.000     34.730      2.839 
 14837.500     35.472      2.851 
 14838.000     35.890      2.854 
 14838.500     34.330      2.863 
 14839.000     34.204      2.868 
 14839.500     31.200      2.863 
 14840.000     29.369      2.855 
 14840.500     27.045      2.847 
 14841.000     25.759      2.844 
 14841.500     26.451      2.844 
 14842.000     28.370      2.842 
 14842.500     35.001      2.831 
 14843.000     41.240      2.830 
 14843.500     44.821      2.836 
 14844.000     50.846      2.849 
 14844.500     49.562      2.855 
 14845.000     48.310      2.846 
 14845.500     48.421      2.821 
 14846.000     48.008      2.811 
 14846.500     49.529      2.822 
 14847.000     49.900      2.826 
 14847.500     49.016      2.837 
 14848.000     46.427      2.839 
 14848.500     41.558      2.845 
 14849.000     41.753      2.848 
 14849.500     48.824      2.846 
 14850.000     52.312      2.844 
 14850.500     53.071      2.838 
 14851.000     51.851      2.840 
 14851.500     48.811      2.836 
 14852.000     47.455      2.824 
 14852.500     46.620      2.817 
 14853.000     46.626      2.828 
 14853.500     47.251      2.835 
 14854.000     47.974      2.854 
 14854.500     49.016      2.862 
 14855.000     47.867      2.859 
 14855.500     44.660      2.851 
 14856.000     42.768      2.841 
 14856.500     48.885      2.832 
 14857.000     48.872      2.833 
 14857.500     48.763      2.834 
 14858.000     46.138      2.835 
 14858.500     38.257      2.832 
 14859.000     35.970      2.839 
 14859.500     38.896      2.854 
 14860.000     47.325      2.863 
 14860.500     53.857      2.857 
 14861.000     50.610      2.852 
 14861.500     36.542      2.854 
 14862.000     29.775      2.860 
 14862.500     20.887      2.876 
 14863.000     16.183      2.878 
 14863.500     15.534      2.878 
 14864.000     20.198      2.870 
 14864.500     23.873      2.841 
 14865.000     29.672      2.824 
 14865.500     30.695      2.822 
 14866.000     28.908      2.831 
 14866.500     24.915      2.839 
 14867.000     26.564      2.840 
 14867.500     27.665      2.836 
 14868.000     30.267      2.827 
 14868.500     35.064      2.824 
 14869.000     38.121      2.819 
 14869.500     37.413      2.818 
 14870.000     34.083      2.819 
 14870.500     27.253      2.840 
 14871.000     21.823      2.853 
 14871.500     16.250      2.871 
 14872.000     15.466      2.863 
 14872.500     14.690      2.855 
 14873.000     14.400      2.843 
 14873.500     13.503      2.840 
 14874.000     14.393      2.837 
 14874.500     14.484      2.834 
 14875.000     14.544      2.829 
 14875.500     14.420      2.828 
 14876.000     15.144      2.837 
 14876.500     15.252      2.849 
 14877.000     15.300      2.848 
 14877.500     15.255      2.840 
 14878.000     15.166      2.834 
 14878.500     15.564      2.834 
 14879.000     16.222      2.837 
 14879.500     17.268      2.849 
 14880.000     31.048      2.859 
 14880.500     44.599      2.871 
 14881.000     53.886      2.874 
 14881.500     55.877      2.867 
 14882.000     53.306      2.860 
 14882.500     40.887      2.843 
 14883.000     31.602      2.843 
 14883.500     26.325      2.840 
 14884.000     24.257      2.841 
 14884.500     22.199      2.840 
 14885.000     20.592      2.839 
 14885.500     16.020      2.837 
 14886.000     15.993      2.841 
 14886.500     15.164      2.847 
 14887.000     15.466      2.851 
 14887.500     16.055      2.854 
 14888.000     17.219      2.858 
 14888.500     18.568      2.861 
 14889.000     18.414      2.855 
 14889.500     18.325      2.856 
 14890.000     17.025      2.861 
 14890.500     14.984      2.870 
 14891.000     13.601      2.872 
 14891.500     13.553      2.869 
 14892.000     12.924      2.868 
 14892.500     12.358      2.866 
 14893.000     12.101      2.857 
 14893.500     13.993      2.844 
 14894.000     16.157      2.838 
 14894.500     21.952      2.853 
 14895.000     24.296      2.870 
 14895.500     27.286      2.870 
 14896.000     28.623      2.851 
 14896.500     25.560      2.834 
 14897.000     23.366      2.826 
 14897.500     21.659      2.818 
 14898.000     21.547      2.809 
 14898.500     21.575      2.800 
 14899.000     21.708      2.806 
 14899.500     22.280      2.819 
 14900.000     21.953      2.844 
 14900.500     21.817      2.854 
 14901.000     21.589      2.843 
 14901.500     21.472      2.835 
 14902.000     20.746      2.830 
 14902.500     20.929      2.839 
 14903.000     21.768      2.855 
 14903.500     22.368      2.856 
 14904.000     21.712      2.854 
 14904.500     21.325      2.839 
 14905.000     20.192      2.836 
 14905.500     29.943      2.836 
 14906.000     32.148      2.842 
 14906.500     51.480      2.839 
 14907.000     58.480      2.835 
 14907.500     54.501      2.835 
 14908.000     46.773      2.829 
 14908.500     31.636      2.837 
 14909.000     27.860      2.847 
 14909.500     25.496      2.857 
 14910.000     23.314      2.859 
 14910.500     21.822      2.862 
 14911.000     21.353      2.861 
 14911.500     23.501      2.854 
 14912.000     30.430      2.844 
 14912.500     37.033      2.838 
 14913.000     38.595      2.834 
 14913.500     37.004      2.832 
 14914.000     34.736      2.832 
 14914.500     30.816      2.832 
 14915.000     28.193      2.834 
 14915.500     24.419      2.835 
 14916.000     22.289      2.829 
 14916.500     23.648      2.833 
 14917.000     26.291      2.839 
 14917.500     29.073      2.842 
 14918.000     31.665      2.840 
 14918.500     33.307      2.829 
 14919.000     32.714      2.823 
 14919.500     30.487      2.820 
 14920.000     29.303      2.827 
 14920.500     28.623      2.842 
 14921.000     28.593      2.852 
 14921.500     27.095      2.862 
 14922.000     24.605      2.866 
 14922.500     21.292      2.866 
 14923.000     20.830      2.854 
 14923.500     20.186      2.841 
 14924.000     19.864      2.831 
 14924.500     20.702      2.832 
 14925.000     20.133      2.835 
 14925.500     19.975      2.849 
 14926.000     20.742      2.857 
 14926.500     23.013      2.863 
 14927.000     25.317      2.862 
 14927.500     26.349      2.864 
 14928.000     26.156      2.861 
 14928.500     25.295      2.857 
 14929.000     26.538      2.854 
 14929.500     28.649      2.836 
 14930.000     29.395      2.821 
 14930.500     27.914      2.823 
 14931.000     27.980      2.828 
 14931.500     29.360      2.832 
 14932.000     30.946      2.844 
 14932.500     30.350      2.853 
 14933.000     28.787      2.862 
 14933.500     27.705      2.873 
