~Version Information Block
 VERS.                2.00:     CWLS LOG ASCII STANDARD - VERSION 2.000000
 WRAP.                  NO:     One Line Per Depth Step
#
~Well Information Block
#MNEM.UNIT                     Data                         Information
#----------   ------------------------------------------   ----------------
 STRT.FT                                    10450.0000:
 STOP.FT                                    16050.0000:
 STEP.FT                                        0.5000:
 NULL.                                       -999.2500:
 COMP.                                                :     COMPANY
 WELL.                                                :     WELL
 FLD .                                                :     FIELD
 CNTY.                                                :     COUNTY
 STAT.                                                :     STATE
 CTRY.                                                :     COUNTRY
 SRVC.                                                :     SERVICE COMPANY
 DATE.                                                :     DATE
 API .                                                :     API NUMBER
 UWI .                                                :     UWI NUMBER
#
~Curve Information Block
#MNEM.UNIT       API CODE      Curve Description
#----------    -------------   -------------------
 DEPT.FT                   :   Depth in Feet
 GR  .GAPI                 :   Gamma Ray
 RHOB.G/C3                 :   Bulk Density
#
~A  DEPTH         GR       RHOB  
# ...
 15878.000     28.846      2.816 
 15878.500     31.610      2.805 
 15879.000     31.244      2.810 
 15879.500     29.777      2.815 
 15880.000     29.098      2.852 
 15880.500     27.498      2.847 
 15881.000     27.074      2.835 
 15881.500     27.067      2.828 
 15882.000     27.115      2.815 
 15882.500     27.648      2.853 
 15883.000     27.196      2.868 
 15883.500     27.085      2.888 
 15884.000     26.944      2.884 
 15884.500     27.728      2.852 
 15885.000     27.815      2.832 
 15885.500     27.846      2.812 
 15886.000     28.013      2.809 
 15886.500     28.781      2.820 
 15887.000     30.427      2.834 
 15887.500     31.639      2.848 
 15888.000     31.583      2.848 
 15888.500     30.853      2.829 
 15889.000     29.452      2.810 
 15889.500     29.322      2.812 
 15890.000     29.164      2.817 
 15890.500     32.104      2.819 
 15891.000     33.970      2.820 
 15891.500     41.006      2.807 
 15892.000     43.474      2.799 
 15892.500     47.993      2.782 
 15893.000     53.923      2.779 
 15893.500     57.706      2.776 
 15894.000     59.820      2.774 
 15894.500     60.051      2.768 
 15895.000     61.599      2.766 
 15895.500     61.632      2.766 
 15896.000     61.085      2.767 
 15896.500     59.960      2.770 
 15897.000     57.118      2.775 
 15897.500     55.367      2.783 
 15898.000     49.585      2.788 
 15898.500     43.524      2.810 
 15899.000     37.263      2.824 
 15899.500     31.946      2.842 
 15900.000     28.594      2.873 
 15900.500     23.714      2.882 
 15901.000     20.822      2.867 
 15901.500     19.470      2.852 
 15902.000     17.959      2.837 
 15902.500     16.854      2.836 
 15903.000     15.958      2.836 
 15903.500     16.099      2.834 
 15904.000     16.044      2.830 
 15904.500     16.154      2.837 
 15905.000     15.429      2.845 
 15905.500     15.292      2.851 
 15906.000     15.347      2.852 
 15906.500     14.525      2.857 
 15907.000     13.637      2.861 
 15907.500     13.755      2.860 
 15908.000     13.716      2.854 
 15908.500     13.596      2.850 
 15909.000     12.851      2.853 
 15909.500     12.827      2.858 
 15910.000     12.069      2.860 
 15910.500     12.162      2.864 
 15911.000     12.140      2.876 
 15911.500     12.152      2.892 
 15912.000     11.963      2.901 
 15912.500     11.110      2.901 
 15913.000     12.408      2.904 
 15913.500     12.726      2.905 
 15914.000     17.479      2.904 
 15914.500     21.780      2.876 
 15915.000     36.179      2.849 
 15915.500     46.602      2.822 
 15916.000     54.274      2.808 
 15916.500     50.560      2.812 
 15917.000     46.837      2.844 
 15917.500     41.033      2.850 
 15918.000     36.640      2.859 
 15918.500     28.134      2.854 
 15919.000     27.672      2.844 
 15919.500     28.284      2.834 
 15920.000     29.210      2.829 
 15920.500     28.132      2.822 
 15921.000     27.818      2.818 
 15921.500     25.957      2.818 
 15922.000     27.375      2.822 
 15922.500     29.980      2.823 
 15923.000     30.206      2.819 
 15923.500     30.164      2.816 
 15924.000     28.504      2.817 
 15924.500     27.750      2.825 
 15925.000     26.336      2.825 
 15925.500     26.356      2.821 
 15926.000     25.612      2.816 
 15926.500     24.111      2.820 
 15927.000     23.236      2.847 
 15927.500     21.604      2.856 
 15928.000     21.582      2.868 
 15928.500     21.601      2.863 
 15929.000     21.400      2.863 
 15929.500     20.393      2.871 
 15930.000     19.121      2.873 
 15930.500     18.030      2.859 
 15931.000     18.833      2.853 
 15931.500     19.786      2.840 
 15932.000     19.898      2.836 
 15932.500     19.226      2.838 
 15933.000     20.088      2.834 
 15933.500     19.854      2.819 
 15934.000     20.624      2.814 
 15934.500     23.673      2.816 
 15935.000     28.574      2.820 
 15935.500     36.411      2.814 
 15936.000     41.314      2.804 
 15936.500     58.303      2.786 
 15937.000     69.748      2.772 
 15937.500     80.492      2.776 
 15938.000     76.716      2.788 
 15938.500     64.090      2.830 
 15939.000     66.464      2.837 
 15939.500     41.787      2.848 
 15940.000     37.608      2.852 
 15940.500     25.764      2.856 
 15941.000     20.798      2.856 
 15941.500     16.880      2.852 
 15942.000     13.729      2.849 
 15942.500     13.712      2.851 
 15943.000     12.149      2.852 
 15943.500     11.968      2.872 
 15944.000     11.830      2.884 
 15944.500     12.797      2.875 
 15945.000     13.402      2.856 
 15945.500     15.014      2.858 
 15946.000     15.442      2.852 
 15946.500     16.177      2.840 
 15947.000     16.103      2.828 
 15947.500     15.465      2.816 
 15948.000     15.412      2.822 
 15948.500     16.266      2.849 
 15949.000     14.809      2.851 
 15949.500     13.801      2.856 
 15950.000     13.549      2.861 
 15950.500     11.871      2.867 
 15951.000     11.513      2.877 
 15951.500     12.142      2.883 
 15952.000     12.924      2.883 
 15952.500     13.800      2.873 
 15953.000     13.574      2.853 
 15953.500     12.720      2.842 
 15954.000     12.020      2.809 
 15954.500     12.847      2.797 
 15955.000     13.224      2.792 
 15955.500     14.948      2.805 
 15956.000     16.092      2.811 
 15956.500     17.110      2.828 
 15957.000     17.554      2.843 
 15957.500     16.800      2.862 
 15958.000     16.252      2.870 
 15958.500     15.377      2.875 
 15959.000     15.183      2.860 
 15959.500     15.980      2.848 
 15960.000     16.041      2.843 
 15960.500     15.963      2.850 
 15961.000     15.251      2.852 
 15961.500     15.067      2.850 
 15962.000     14.945      2.837 
 15962.500     14.483      2.835 
 15963.000     14.299      2.855 
 15963.500     14.279      2.862 
 15964.000     14.798      2.865 
 15964.500     16.317      2.858 
 15965.000     15.410      2.853 
 15965.500     14.777      2.849 
 15966.000     13.785      2.836 
 15966.500     14.377      2.835 
 15967.000     14.419      2.836 
 15967.500     15.184      2.844 
 15968.000     15.235      2.852 
 15968.500     15.416      2.860 
 15969.000     14.618      2.862 
 15969.500     14.520      2.860 
 15970.000     14.654      2.850 
 15970.500     15.373      2.839 
 15971.000     15.230      2.828 
 15971.500     15.533      2.815 
 15972.000     15.539      2.823 
 15972.500     15.107      2.840 
 15973.000     14.303      2.840 
 15973.500     13.642      2.840 
 15974.000     14.466      2.837 
 15974.500     14.619      2.850 
 15975.000     15.346      2.859 
 15975.500     15.344      2.854 
 15976.000     14.581      2.849 
 15976.500     15.087      2.816 
 15977.000     15.999      2.817 
 15977.500     18.436      2.824 
 15978.000     21.029      2.835 
 15978.500     24.377      2.849 
 15979.000     31.011      2.856 
 15979.500     35.218      2.854 
 15980.000     39.881      2.848 
 15980.500     40.210      2.838 
 15981.000     37.665      2.838 
 15981.500     34.668      2.842 
 15982.000     31.649      2.849 
 15982.500     28.045      2.843 
 15983.000     26.348      2.834 
 15983.500     21.766      2.833 
 15984.000     17.841      2.835 
 15984.500     15.438      2.828 
 15985.000     13.155      2.829 
 15985.500     11.286      2.838 
 15986.000     13.542      2.844 
 15986.500     15.206      2.842 
 15987.000     21.526      2.837 
 15987.500     24.990      2.836 
 15988.000     30.089      2.842 
 15988.500     31.828      2.848 
 15989.000     32.675      2.870 
 15989.500     34.093      2.875 
 15990.000     36.365      2.868 
 15990.500     40.319      2.829 
 15991.000     43.842      2.816 
 15991.500     51.278      2.815 
 15992.000     57.343      2.835 
 15992.500     67.667      2.829 
 15993.000     63.800      2.817 
 15993.500     60.297      2.814 
 15994.000     55.785      2.812 
 15994.500     45.437      2.824 
 15995.000     40.514      2.830 
 15995.500     37.095      2.843 
