~Version Information Block
 VERS.                2.00:     CWLS LOG ASCII STANDARD - VERSION 2.000000
 WRAP.                  NO:     One Line Per Depth Step
#
~Well Information Block
#MNEM.UNIT                     Data                         Information
#----------   ------------------------------------------   ----------------
 STRT.FT                                     5300.0000:
 STOP.FT                                    10450.0000:
 STEP.FT                                        0.5000:
 NULL.                                       -999.2500:
 COMP.                                                :     COMPANY
 WELL.                                                :     WELL
 FLD .                                                :     FIELD
 CNTY.                                                :     COUNTY
 STAT.                                                :     STATE
 CTRY.                                                :     COUNTRY
 SRVC.                                                :     SERVICE COMPANY
 DATE.                                                :     DATE
 API .                                                :     API NUMBER
 UWI .                                                :     UWI NUMBER
#
~Curve Information Block
#MNEM.UNIT       API CODE      Curve Description
#----------    -------------   -------------------
 DEPT.FT                   :   Depth in Feet
 GR  .GAPI                 :   Gamma Ray
 RHOB.G/C3                 :   Bulk Density
#
~A  DEPTH         GR       RHOB  
# ...
  6952.000     24.343      2.798 
  6952.500     25.229      2.793 
  6953.000     26.572      2.812 
  6953.500     26.581      2.821 
  6954.000     26.070      2.825 
  6954.500     24.943      2.825 
  6955.000     24.232      2.828 
  6955.500     21.549      2.834 
  6956.000     19.339      2.841 
  6956.500     15.853      2.841 
  6957.000     14.882      2.838 
  6957.500     14.493      2.827 
  6958.000     15.382      2.834 
  6958.500     19.963      2.852 
  6959.000     36.249      2.848 
  6959.500     45.249      2.839 
  6960.000     48.398      2.818 
  6960.500     42.751      2.803 
  6961.000     37.051      2.809 
  6961.500     33.139      2.816 
  6962.000     30.904      2.819 
  6962.500     36.478      2.835 
  6963.000     42.999      2.844 
  6963.500     44.949      2.846 
  6964.000     45.404      2.839 
  6964.500     42.407      2.827 
  6965.000     37.534      2.809 
  6965.500     35.294      2.807 
  6966.000     36.661      2.807 
  6966.500     39.661      2.808 
  6967.000     43.410      2.809 
  6967.500     47.796      2.813 
  6968.000     51.296      2.822 
  6968.500     47.219      2.832 
  6969.000     35.422      2.830 
  6969.500     28.254      2.824 
  6970.000     21.872      2.809 
  6970.500     20.319      2.786 
  6971.000     20.510      2.792 
  6971.500     21.942      2.812 
  6972.000     24.549      2.828 
  6972.500     27.904      2.845 
  6973.000     31.402      2.849 
  6973.500     32.158      2.853 
  6974.000     31.795      2.851 
  6974.500     26.276      2.835 
  6975.000     23.558      2.824 
  6975.500     21.439      2.819 
  6976.000     19.185      2.825 
  6976.500     18.370      2.824 
  6977.000     21.217      2.830 
  6977.500     27.254      2.831 
  6978.000     32.489      2.825 
  6978.500     38.780      2.807 
  6979.000     45.570      2.802 
  6979.500     44.061      2.805 
  6980.000     38.574      2.819 
  6980.500     28.416      2.845 
  6981.000     21.212      2.857 
  6981.500     17.865      2.862 
  6982.000     17.401      2.843 
  6982.500     18.871      2.827 
  6983.000     20.250      2.824 
  6983.500     21.117      2.824 
  6984.000     20.599      2.852 
  6984.500     19.790      2.848 
  6985.000     19.613      2.832 
  6985.500     20.488      2.804 
  6986.000     21.208      2.801 
  6986.500     21.996      2.802 
  6987.000     20.598      2.810 
  6987.500     17.601      2.816 
  6988.000     15.069      2.819 
  6988.500     11.828      2.812 
  6989.000     10.850      2.810 
  6989.500     10.674      2.803 
  6990.000     10.888      2.794 
  6990.500     13.223      2.779 
  6991.000     14.657      2.780 
  6991.500     18.784      2.784 
  6992.000     20.162      2.794 
  6992.500     22.713      2.811 
  6993.000     28.793      2.812 
  6993.500     32.197      2.812 
  6994.000     37.902      2.813 
  6994.500     41.792      2.817 
  6995.000     42.201      2.801 
  6995.500     44.137      2.793 
  6996.000     46.935      2.784 
  6996.500     55.619      2.781 
  6997.000     57.344      2.780 
  6997.500     57.665      2.780 
  6998.000     56.559      2.783 
  6998.500     53.763      2.795 
  6999.000     53.634      2.797 
  6999.500     55.138      2.794 
  7000.000     57.558      2.793 
  7000.500     52.420      2.794 
  7001.000     39.110      2.792 
  7001.500     30.511      2.797 
  7002.000     25.663      2.808 
  7002.500     21.938      2.820 
  7003.000     20.652      2.817 
  7003.500     20.173      2.812 
  7004.000     20.231      2.808 
  7004.500     20.297      2.810 
  7005.000     21.230      2.815 
  7005.500     21.955      2.833 
  7006.000     21.450      2.839 
  7006.500     24.414      2.844 
  7007.000     26.111      2.840 
  7007.500     31.801      2.833 
  7008.000     33.914      2.831 
  7008.500     39.799      2.828 
  7009.000     43.709      2.819 
  7009.500     46.618      2.808 
  7010.000     47.241      2.795 
  7010.500     45.083      2.791 
  7011.000     39.622      2.801 
  7011.500     32.574      2.810 
  7012.000     26.065      2.818 
  7012.500     23.298      2.823 
  7013.000     20.205      2.824 
  7013.500     18.747      2.828 
  7014.000     17.015      2.828 
  7014.500     17.076      2.837 
  7015.000     17.228      2.843 
  7015.500     18.150      2.844 
  7016.000     22.418      2.834 
  7016.500     26.169      2.805 
  7017.000     26.640      2.798 
  7017.500     26.762      2.808 
  7018.000     26.226      2.839 
  7018.500     31.593      2.870 
  7019.000     36.612      2.860 
  7019.500     39.622      2.843 
  7020.000     38.693      2.809 
  7020.500     34.572      2.810 
  7021.000     30.382      2.814 
  7021.500     28.383      2.821 
  7022.000     33.231      2.824 
  7022.500     42.024      2.824 
  7023.000     48.462      2.823 
  7023.500     51.074      2.816 
  7024.000     48.394      2.815 
  7024.500     36.132      2.812 
  7025.000     28.388      2.809 
  7025.500     24.223      2.799 
  7026.000     22.564      2.796 
  7026.500     25.142      2.797 
  7027.000     28.054      2.803 
  7027.500     34.300      2.807 
  7028.000     35.964      2.808 
  7028.500     33.065      2.806 
  7029.000     27.979      2.806 
  7029.500     25.006      2.809 
  7030.000     25.460      2.813 
  7030.500     29.280      2.820 
  7031.000     29.781      2.825 
  7031.500     27.504      2.821 
  7032.000     21.572      2.820 
  7032.500     19.762      2.821 
  7033.000     25.037      2.824 
  7033.500     30.038      2.824 
  7034.000     42.920      2.822 
  7034.500     51.327      2.819 
  7035.000     54.527      2.811 
  7035.500     51.448      2.808 
  7036.000     46.445      2.809 
  7036.500     33.573      2.818 
  7037.000     29.942      2.825 
  7037.500     29.470      2.830 
  7038.000     32.420      2.819 
  7038.500     35.504      2.797 
  7039.000     36.222      2.792 
  7039.500     37.474      2.796 
  7040.000     39.050      2.799 
  7040.500     40.973      2.802 
  7041.000     41.721      2.805 
  7041.500     41.783      2.799 
  7042.000     40.190      2.796 
  7042.500     34.286      2.805 
  7043.000     28.970      2.815 
  7043.500     28.530      2.820 
  7044.000     28.216      2.817 
  7044.500     36.387      2.798 
  7045.000     40.331      2.790 
  7045.500     39.768      2.794 
  7046.000     38.020      2.808 
  7046.500     24.313      2.826 
  7047.000     20.271      2.825 
  7047.500     17.014      2.822 
  7048.000     17.092      2.821 
  7048.500     16.240      2.822 
  7049.000     17.109      2.824 
  7049.500     17.844      2.824 
  7050.000     23.560      2.835 
  7050.500     31.532      2.836 
  7051.000     37.319      2.814 
  7051.500     39.362      2.810 
  7052.000     37.998      2.809 
  7052.500     26.142      2.819 
  7053.000     29.055      2.818 
  7053.500     34.906      2.815 
  7054.000     45.230      2.808 
  7054.500     45.420      2.814 
  7055.000     36.893      2.828 
  7055.500     25.258      2.833 
  7056.000     18.357      2.846 
  7056.500     15.986      2.841 
  7057.000     13.884      2.837 
  7057.500     18.242      2.836 
  7058.000     19.618      2.829 
  7058.500     21.273      2.820 
  7059.000     22.305      2.791 
  7059.500     26.397      2.794 
  7060.000     29.101      2.798 
  7060.500     31.580      2.799 
  7061.000     34.715      2.791 
  7061.500     32.706      2.781 
  7062.000     28.885      2.775 
  7062.500     26.518      2.807 
  7063.000     24.476      2.825 
  7063.500     24.656      2.858 
  7064.000     25.799      2.852 
  7064.500     30.858      2.837 
  7065.000     34.083      2.829 
  7065.500     34.744      2.825 
  7066.000     34.180      2.827 
  7066.500     37.282      2.826 
  7067.000     38.480      2.823 
  7067.500     39.227      2.830 
  7068.000     35.131      2.834 
  7068.500     30.506      2.831 
  7069.000     22.716      2.816 
  7069.500     21.734      2.807 
