~Version Information Block
 VERS.                2.00:     CWLS LOG ASCII STANDARD - VERSION 2.000000
 WRAP.                  NO:     One Line Per Depth Step
#
~Well Information Block
#MNEM.UNIT                     Data                         Information
#----------   ------------------------------------------   ----------------
 STRT.FT                                     5300.0000:
 STOP.FT                                    10450.0000:
 STEP.FT                                        0.5000:
 NULL.                                       -999.2500:
 COMP.                                                :     COMPANY
 WELL.                                                :     WELL
 FLD .                                                :     FIELD
 CNTY.                                                :     COUNTY
 STAT.                                                :     STATE
 CTRY.                                                :     COUNTRY
 SRVC.                                                :     SERVICE COMPANY
 DATE.                                                :     DATE
 API .                                                :     API NUMBER
 UWI .                                                :     UWI NUMBER
#
~Curve Information Block
#MNEM.UNIT       API CODE      Curve Description
#----------    -------------   -------------------
 DEPT.FT                   :   Depth in Feet
 GR  .GAPI                 :   Gamma Ray
 RHOB.G/C3                 :   Bulk Density
#
~A  DEPTH         GR       RHOB  
# ...
  7306.000     48.127      2.794 
  7306.500     39.666      2.792 
  7307.000     32.744      2.792 
  7307.500     25.076      2.796 
  7308.000     20.944      2.809 
  7308.500     19.191      2.812 
  7309.000     20.423      2.814 
  7309.500     21.885      2.816 
  7310.000     22.711      2.811 
  7310.500     24.017      2.803 
  7311.000     23.716      2.796 
  7311.500     23.213      2.799 
  7312.000     22.372      2.799 
  7312.500     23.135      2.804 
  7313.000     24.971      2.805 
  7313.500     27.027      2.809 
  7314.000     29.003      2.818 
  7314.500     32.037      2.821 
  7315.000     32.240      2.818 
  7315.500     30.552      2.809 
  7316.000     28.464      2.807 
  7316.500     23.913      2.822 
  7317.000     22.440      2.831 
  7317.500     20.800      2.842 
  7318.000     19.288      2.841 
  7318.500     17.257      2.836 
  7319.000     16.516      2.833 
  7319.500     17.150      2.827 
  7320.000     17.082      2.826 
  7320.500     17.509      2.829 
  7321.000     19.152      2.831 
  7321.500     20.880      2.830 
  7322.000     21.917      2.836 
  7322.500     25.491      2.843 
  7323.000     27.631      2.839 
  7323.500     26.269      2.820 
  7324.000     22.122      2.816 
  7324.500     19.854      2.822 
  7325.000     19.808      2.841 
  7325.500     26.931      2.841 
  7326.000     31.909      2.834 
  7326.500     39.293      2.829 
  7327.000     40.365      2.827 
  7327.500     34.001      2.829 
  7328.000     31.885      2.836 
  7328.500     33.748      2.824 
  7329.000     42.700      2.801 
  7329.500     52.180      2.790 
  7330.000     48.645      2.787 
  7330.500     35.574      2.785 
  7331.000     26.934      2.798 
  7331.500     22.052      2.820 
  7332.000     21.128      2.837 
  7332.500     22.334      2.842 
  7333.000     25.741      2.836 
  7333.500     27.643      2.829 
  7334.000     28.147      2.823 
  7334.500     26.169      2.823 
  7335.000     23.985      2.821 
  7335.500     22.482      2.827 
  7336.000     22.512      2.834 
  7336.500     22.024      2.830 
  7337.000     21.079      2.826 
  7337.500     20.047      2.819 
  7338.000     18.426      2.812 
  7338.500     16.815      2.815 
  7339.000     16.088      2.818 
  7339.500     16.971      2.823 
  7340.000     17.036      2.824 
  7340.500     17.683      2.825 
  7341.000     18.676      2.826 
  7341.500     21.469      2.825 
  7342.000     26.595      2.828 
  7342.500     32.652      2.839 
  7343.000     33.676      2.848 
  7343.500     31.531      2.843 
  7344.000     26.763      2.837 
  7344.500     19.954      2.839 
  7345.000     14.889      2.843 
  7345.500     15.153      2.849 
  7346.000     15.802      2.852 
  7346.500     17.977      2.850 
  7347.000     18.461      2.845 
  7347.500     20.645      2.837 
  7348.000     25.930      2.832 
  7348.500     31.446      2.830 
  7349.000     34.516      2.826 
  7349.500     41.797      2.824 
  7350.000     46.189      2.823 
  7350.500     48.094      2.819 
  7351.000     46.700      2.816 
  7351.500     43.979      2.814 
  7352.000     37.522      2.816 
  7352.500     28.425      2.827 
  7353.000     25.841      2.838 
  7353.500     25.890      2.848 
  7354.000     27.640      2.852 
  7354.500     30.910      2.846 
  7355.000     34.420      2.840 
  7355.500     36.693      2.832 
  7356.000     38.589      2.822 
  7356.500     38.061      2.814 
  7357.000     38.770      2.814 
  7357.500     44.147      2.816 
  7358.000     48.907      2.816 
  7358.500     50.767      2.818 
  7359.000     47.884      2.820 
  7359.500     40.799      2.822 
  7360.000     30.742      2.830 
  7360.500     17.629      2.835 
  7361.000     18.766      2.827 
  7361.500     18.772      2.819 
  7362.000     18.967      2.807 
  7362.500     20.225      2.802 
  7363.000     18.591      2.799 
  7363.500     20.521      2.806 
  7364.000     21.817      2.816 
  7364.500     23.221      2.829 
  7365.000     24.085      2.829 
  7365.500     24.080      2.826 
  7366.000     23.193      2.825 
  7366.500     22.414      2.821 
  7367.000     21.761      2.818 
  7367.500     21.848      2.816 
  7368.000     21.539      2.815 
  7368.500     20.253      2.827 
  7369.000     20.975      2.826 
  7369.500     22.746      2.824 
  7370.000     25.197      2.822 
  7370.500     27.594      2.827 
  7371.000     29.669      2.831 
  7371.500     28.197      2.829 
  7372.000     28.172      2.819 
  7372.500     27.391      2.810 
  7373.000     27.490      2.810 
  7373.500     28.453      2.816 
  7374.000     29.342      2.824 
  7374.500     32.446      2.831 
  7375.000     36.518      2.828 
  7375.500     41.613      2.817 
  7376.000     42.091      2.816 
  7376.500     41.276      2.818 
  7377.000     36.394      2.821 
  7377.500     34.360      2.820 
  7378.000     32.284      2.819 
  7378.500     30.552      2.815 
  7379.000     29.128      2.811 
  7379.500     29.329      2.808 
  7380.000     35.297      2.809 
  7380.500     44.406      2.820 
  7381.000     49.129      2.826 
  7381.500     52.033      2.833 
  7382.000     51.522      2.842 
  7382.500     46.911      2.840 
  7383.000     43.135      2.831 
  7383.500     38.539      2.823 
  7384.000     31.170      2.817 
  7384.500     25.226      2.817 
  7385.000     22.159      2.815 
  7385.500     20.719      2.802 
  7386.000     20.153      2.800 
  7386.500     20.402      2.800 
  7387.000     21.179      2.802 
  7387.500     21.867      2.805 
  7388.000     21.901      2.817 
  7388.500     22.604      2.826 
  7389.000     23.757      2.826 
  7389.500     25.555      2.819 
  7390.000     27.187      2.809 
  7390.500     31.805      2.810 
  7391.000     41.035      2.813 
  7391.500     49.666      2.826 
  7392.000     56.182      2.825 
  7392.500     63.088      2.826 
  7393.000     54.525      2.824 
  7393.500     44.907      2.825 
  7394.000     47.199      2.826 
  7394.500     53.425      2.824 
  7395.000     57.314      2.827 
  7395.500     57.579      2.831 
  7396.000     52.222      2.834 
  7396.500     39.908      2.841 
  7397.000     31.171      2.845 
  7397.500     22.900      2.854 
  7398.000     21.511      2.854 
  7398.500     19.957      2.846 
  7399.000     19.032      2.836 
  7399.500     17.716      2.818 
  7400.000     17.272      2.816 
  7400.500     15.426      2.813 
  7401.000     16.760      2.826 
  7401.500     19.493      2.841 
  7402.000     21.331      2.860 
  7402.500     21.675      2.850 
  7403.000     22.146      2.835 
  7403.500     22.529      2.821 
  7404.000     21.070      2.820 
  7404.500     19.321      2.821 
  7405.000     18.998      2.821 
  7405.500     19.231      2.817 
  7406.000     19.340      2.817 
  7406.500     20.719      2.821 
  7407.000     20.781      2.822 
  7407.500     22.666      2.824 
  7408.000     24.688      2.824 
  7408.500     31.784      2.823 
  7409.000     35.768      2.818 
  7409.500     43.113      2.811 
  7410.000     46.230      2.801 
  7410.500     58.409      2.800 
  7411.000     66.502      2.798 
  7411.500     69.423      2.798 
  7412.000     69.533      2.789 
  7412.500     68.495      2.779 
  7413.000     69.808      2.772 
  7413.500     68.456      2.769 
  7414.000     78.570      2.764 
  7414.500    100.361      2.745 
  7415.000    138.419      2.733 
  7415.500    136.678      2.732 
  7416.000    127.746      2.733 
  7416.500     45.815      2.778 
  7417.000     48.650      2.805 
  7417.500     24.894      2.832 
  7418.000     17.982      2.845 
  7418.500     13.899      2.848 
  7419.000     13.695      2.844 
  7419.500     13.652      2.834 
  7420.000     13.813      2.815 
  7420.500     16.126      2.807 
  7421.000     20.838      2.806 
  7421.500     25.709      2.808 
  7422.000     30.949      2.815 
  7422.500     33.724      2.825 
  7423.000     33.839      2.827 
  7423.500     31.921      2.822 
