~Version Information Block
 VERS.                2.00:     CWLS LOG ASCII STANDARD - VERSION 2.000000
 WRAP.                  NO:     One Line Per Depth Step
#
~Well Information Block
#MNEM.UNIT                     Data                         Information
#----------   ------------------------------------------   ----------------
 STRT.FT                                    10450.0000:
 STOP.FT                                    16050.0000:
 STEP.FT                                        0.5000:
 NULL.                                       -999.2500:
 COMP.                                                :     COMPANY
 WELL.                                                :     WELL
 FLD .                                                :     FIELD
 CNTY.                                                :     COUNTY
 STAT.                                                :     STATE
 CTRY.                                                :     COUNTRY
 SRVC.                                                :     SERVICE COMPANY
 DATE.                                                :     DATE
 API .                                                :     API NUMBER
 UWI .                                                :     UWI NUMBER
#
~Curve Information Block
#MNEM.UNIT       API CODE      Curve Description
#----------    -------------   -------------------
 DEPT.FT                   :   Depth in Feet
 GR  .GAPI                 :   Gamma Ray
 RHOB.G/C3                 :   Bulk Density
#
~A  DEPTH         GR       RHOB  
# ...
 12928.000     39.370      2.742 
 12928.500     39.179      2.746 
 12929.000     39.020      2.743 
 12929.500     36.981      2.737 
 12930.000     37.393      2.738 
 12930.500     39.778      2.733 
 12931.000     42.001      2.732 
 12931.500     41.875      2.738 
 12932.000     41.705      2.748 
 12932.500     40.291      2.761 
 12933.000     40.284      2.766 
 12933.500     41.674      2.766 
 12934.000     41.981      2.767 
 12934.500     41.969      2.745 
 12935.000     41.854      2.739 
 12935.500     40.614      2.733 
 12936.000     38.892      2.744 
 12936.500     36.919      2.751 
 12937.000     36.249      2.750 
 12937.500     35.735      2.736 
 12938.000     34.904      2.721 
 12938.500     33.983      2.717 
 12939.000     34.214      2.721 
 12939.500     33.548      2.732 
 12940.000     34.845      2.736 
 12940.500     34.728      2.737 
 12941.000     35.922      2.725 
 12941.500     37.695      2.718 
 12942.000     39.185      2.717 
 12942.500     41.218      2.718 
 12943.000     42.716      2.725 
 12943.500     44.385      2.727 
 12944.000     45.214      2.729 
 12944.500     44.500      2.721 
 12945.000     43.737      2.720 
 12945.500     41.811      2.725 
 12946.000     41.697      2.728 
 12946.500     40.432      2.747 
 12947.000     41.048      2.752 
 12947.500     43.379      2.749 
 12948.000     45.344      2.744 
 12948.500     48.493      2.746 
 12949.000     49.190      2.746 
 12949.500     49.802      2.750 
 12950.000     50.365      2.750 
 12950.500     50.104      2.756 
 12951.000     49.704      2.760 
 12951.500     48.888      2.756 
 12952.000     49.210      2.751 
 12952.500     47.650      2.744 
 12953.000     46.483      2.738 
 12953.500     47.301      2.737 
 12954.000     48.234      2.733 
 12954.500     48.775      2.731 
 12955.000     46.865      2.730 
 12955.500     42.564      2.733 
 12956.000     40.444      2.736 
 12956.500     38.514      2.742 
 12957.000     36.924      2.740 
 12957.500     37.080      2.740 
 12958.000     37.331      2.738 
 12958.500     40.788      2.731 
 12959.000     43.207      2.727 
 12959.500     47.382      2.729 
 12960.000     48.848      2.735 
 12960.500     48.687      2.741 
 12961.000     46.099      2.748 
 12961.500     43.598      2.751 
 12962.000     39.946      2.753 
 12962.500     38.733      2.749 
 12963.000     37.168      2.736 
 12963.500     38.791      2.737 
 12964.000     40.908      2.734 
 12964.500     41.816      2.730 
 12965.000     42.892      2.731 
 12965.500     40.757      2.731 
 12966.000     40.659      2.729 
 12966.500     40.514      2.740 
 12967.000     41.178      2.748 
 12967.500     41.789      2.751 
 12968.000     41.985      2.750 
 12968.500     41.423      2.744 
 12969.000     40.547      2.725 
 12969.500     40.291      2.729 
 12970.000     41.018      2.730 
 12970.500     41.602      2.732 
 12971.000     41.981      2.729 
 12971.500     44.200      2.734 
 12972.000     45.691      2.741 
 12972.500     48.975      2.750 
 12973.000     50.703      2.764 
 12973.500     50.615      2.753 
 12974.000     50.589      2.749 
 12974.500     51.367      2.740 
 12975.000     52.032      2.729 
 12975.500     52.840      2.725 
 12976.000     53.082      2.721 
 12976.500     51.695      2.721 
 12977.000     50.869      2.717 
 12977.500     49.969      2.714 
 12978.000     51.348      2.719 
 12978.500     52.792      2.727 
 12979.000     53.663      2.744 
 12979.500     52.931      2.738 
 12980.000     52.252      2.730 
 12980.500     51.003      2.723 
 12981.000     49.233      2.716 
 12981.500     48.372      2.712 
 12982.000     48.158      2.706 
 12982.500     48.484      2.706 
 12983.000     50.239      2.716 
 12983.500     52.874      2.736 
 12984.000     57.541      2.745 
 12984.500     59.566      2.754 
 12985.000     67.668      2.745 
 12985.500     75.068      2.738 
 12986.000     78.146      2.729 
 12986.500     80.475      2.732 
 12987.000     82.270      2.734 
 12987.500     81.048      2.739 
 12988.000     79.902      2.749 
 12988.500     72.883      2.727 
 12989.000     68.601      2.714 
 12989.500     57.046      2.683 
 12990.000     52.655      2.679 
 12990.500     42.183      2.709 
 12991.000     35.777      2.725 
 12991.500     33.917      2.744 
 12992.000     32.286      2.753 
 12992.500     30.731      2.754 
 12993.000     31.610      2.756 
 12993.500     31.929      2.756 
 12994.000     32.447      2.759 
 12994.500     33.827      2.755 
 12995.000     34.103      2.751 
 12995.500     35.903      2.745 
 12996.000     36.757      2.739 
 12996.500     40.482      2.723 
 12997.000     41.294      2.715 
 12997.500     40.493      2.718 
 12998.000     40.355      2.735 
 12998.500     37.997      2.744 
 12999.000     36.070      2.741 
 12999.500     32.319      2.734 
 13000.000     30.958      2.731 
 13000.500     29.051      2.733 
 13001.000     28.770      2.738 
 13001.500     29.719      2.743 
 13002.000     29.838      2.750 
 13002.500     35.936      2.745 
 13003.000     40.855      2.747 
 13003.500     44.147      2.744 
 13004.000     50.758      2.737 
 13004.500     56.460      2.734 
 13005.000     59.026      2.728 
 13005.500     61.634      2.722 
 13006.000     64.691      2.712 
 13006.500     65.659      2.701 
 13007.000     63.912      2.703 
 13007.500     61.490      2.707 
 13008.000     45.509      2.731 
 13008.500     38.307      2.738 
 13009.000     33.914      2.741 
 13009.500     33.448      2.743 
 13010.000     34.851      2.756 
 13010.500     40.809      2.751 
 13011.000     44.505      2.744 
 13011.500     49.118      2.731 
 13012.000     56.753      2.730 
 13012.500     63.772      2.730 
 13013.000     67.943      2.729 
 13013.500     67.523      2.729 
 13014.000     62.778      2.733 
 13014.500     53.691      2.736 
 13015.000     40.640      2.740 
 13015.500     39.337      2.737 
 13016.000     37.302      2.736 
 13016.500     38.012      2.730 
 13017.000     39.999      2.725 
 13017.500     40.004      2.726 
 13018.000     41.770      2.728 
 13018.500     44.954      2.740 
 13019.000     45.168      2.747 
 13019.500     46.728      2.753 
 13020.000     47.768      2.753 
 13020.500     48.177      2.760 
 13021.000     49.384      2.773 
 13021.500     49.275      2.778 
 13022.000     48.389      2.776 
 13022.500     45.765      2.762 
 13023.000     44.207      2.756 
 13023.500     44.417      2.755 
 13024.000     45.639      2.753 
 13024.500     46.771      2.750 
 13025.000     47.663      2.744 
 13025.500     48.463      2.738 
 13026.000     48.799      2.736 
 13026.500     47.938      2.742 
 13027.000     47.324      2.743 
 13027.500     47.773      2.733 
 13028.000     48.520      2.723 
 13028.500     49.907      2.709 
 13029.000     50.646      2.706 
 13029.500     53.041      2.705 
 13030.000     54.229      2.709 
 13030.500     59.139      2.714 
 13031.000     62.175      2.715 
 13031.500     61.791      2.711 
 13032.000     59.895      2.718 
 13032.500     57.384      2.728 
 13033.000     55.362      2.747 
 13033.500     52.830      2.746 
 13034.000     51.054      2.733 
 13034.500     48.845      2.725 
 13035.000     49.753      2.717 
 13035.500     52.770      2.725 
 13036.000     56.209      2.733 
 13036.500     66.216      2.734 
 13037.000     73.166      2.734 
 13037.500     79.388      2.725 
 13038.000     80.586      2.721 
 13038.500     80.271      2.722 
 13039.000     80.762      2.726 
 13039.500     80.668      2.727 
 13040.000     79.548      2.721 
 13040.500     82.269      2.714 
 13041.000     73.268      2.707 
 13041.500     68.777      2.706 
 13042.000     58.063      2.708 
 13042.500     49.365      2.712 
 13043.000     46.302      2.722 
 13043.500     47.453      2.729 
 13044.000     50.131      2.733 
 13044.500     52.709      2.731 
 13045.000     56.362      2.728 
 13045.500     64.436      2.732 
